,City,Lat,Lng,Max Temp,Humidity,Cloudiness,Wind Speed,Country,Date
0,bredasdorp,-34.5322,20.0403,287.15,94,0,2.57,ZA,1612319097
1,lagoa,39.05,-27.9833,286.4,68,99,16.23,PT,1612319185
2,zalantun,48,122.7167,251.32,77,0,3.49,CN,1612319689
3,tessalit,20.1986,1.0114,290.86,25,29,3.85,ML,1612319494
4,ponta do sol,32.6667,-17.1,288.71,77,26,0.45,PT,1612319194
5,tavda,58.0425,65.2726,259.13,95,5,2.45,RU,1612319528
6,banda aceh,5.5577,95.3222,301.7,70,4,4.55,ID,1612319447
7,vaasa,63.096,21.6158,254.15,84,0,2.57,FI,1612319690
8,busselton,-33.65,115.3333,299.26,53,1,1.79,AU,1612319120
9,guerrero negro,27.9769,-114.0611,291.68,56,99,5.55,MX,1612319204
10,tansen,27.8673,83.5467,285.55,43,0,1.16,NP,1612319670
11,cabo san lucas,22.8909,-109.9124,294.15,64,40,3.6,MX,1612319049
12,haverfordwest,51.8017,-4.9691,282.59,93,75,7.2,GB,1612319690
13,taolanaro,NaN,NaN,NaN,NaN,NaN,NaN,NaN,NaN
14,mataura,-46.1927,168.8643,291.83,70,82,3.66,NZ,1612319143
15,saint-augustin,51.226,-58.6502,267.08,94,100,7.86,CA,1612319237
16,bengkulu,-3.8004,102.2655,300.83,72,100,1.94,ID,1612319222
17,stara vyzhivka,51.4376,24.44,274.15,96,100,5.08,UA,1612319691
18,atar,20.5169,-13.0499,292.9,22,1,2.74,MR,1612319674
19,jamestown,42.097,-79.2353,270.93,80,90,7.2,US,1612319190
20,lebu,-37.6167,-73.65,287.34,87,0,5.92,CL,1612319192
21,ushuaia,-54.8,-68.3,285.15,71,75,15.43,AR,1612319189
22,auki,-8.7676,160.7034,298.52,92,100,6.43,SB,1612319218
23,hobart,-42.8794,147.3294,294.82,51,75,5.66,AU,1612319007
24,lucapa,-8.4192,20.7447,291.82,97,100,1.01,AO,1612319692
25,port lincoln,-34.7333,135.8667,293.5,61,81,4.12,AU,1612319127
26,san jeronimo,-11.9472,-75.2829,283.62,74,100,1.21,PE,1612319499
27,esperance,-33.8667,121.9,298.15,44,75,5.66,AU,1612319204
28,qaanaaq,77.484,-69.3632,248.24,83,100,0.76,GL,1612319097
29,east london,-33.0153,27.9116,294.77,72,44,2.84,ZA,1612319154
30,beyneu,45.3167,55.2,276.27,74,95,5.81,KZ,1612319693
31,chokurdakh,70.6333,147.9167,249.84,90,52,2.48,RU,1612319051
32,saint-pierre,-21.3393,55.4781,298.15,73,0,2.57,RE,1612319460
33,alyangula,-13.8483,136.4192,305.15,66,40,3.6,AU,1612319693
34,ketchikan,55.3422,-131.6461,276.15,80,1,1.54,US,1612319098
35,barrow,71.2906,-156.7887,241.15,68,1,7.2,US,1612319201
36,atuona,-9.8,-139.0333,299.07,72,48,5.59,PF,1612319201
37,peniche,39.3558,-9.3811,287.59,95,100,6.71,PT,1612319473
38,arraial do cabo,-22.9661,-42.0278,297.65,87,44,10.23,BR,1612319153
39,caraquet,47.7941,-64.9386,273.15,100,100,9.77,CA,1612319480
40,albany,42.6001,-73.9662,270.37,87,100,3.2,US,1612319143
41,quatre cocos,-20.2078,57.7625,299.15,83,75,3.6,MU,1612319448
42,harper,4.375,-7.7169,298.73,90,0,3.04,LR,1612319473
43,kurilsk,45.2333,147.8833,262.17,89,100,13.24,RU,1612319694
44,khatanga,71.9667,102.5,244.3,87,100,1.53,RU,1612319081
45,san borja,-14.8167,-66.85,297.14,96,100,1.02,BO,1612319694
46,baracoa,20.3467,-74.4958,294.08,82,38,4.36,CU,1612319694
47,trincomalee,8.5711,81.2335,299.27,75,98,7.24,LK,1612319440
48,hermanus,-34.4187,19.2345,287.59,94,0,2.52,ZA,1612319188
49,leua,48.2156,18.6071,275.37,93,100,1.79,SK,1612319695
50,tondano,1.3038,124.9112,303.15,66,40,1.54,ID,1612319695
51,seoul,37.5683,126.9778,272.15,40,0,2.06,KR,1612319482
52,tanjong sepat,NaN,NaN,NaN,NaN,NaN,NaN,NaN,NaN
53,mar del plata,-38.0023,-57.5575,292.59,88,75,2.57,AR,1612318964
54,attawapiskat,NaN,NaN,NaN,NaN,NaN,NaN,NaN,NaN
55,akyab,20.15,92.9,292.68,35,0,2.38,MM,1612319429
56,havre-saint-pierre,50.2334,-63.5986,269.15,80,90,7.2,CA,1612319695
57,barentsburg,NaN,NaN,NaN,NaN,NaN,NaN,NaN,NaN
58,thompson,55.7435,-97.8558,264.15,92,90,2.06,CA,1612319203
59,ostrovnoy,68.0531,39.5131,268.3,97,100,3.1,RU,1612319448
60,butaritari,3.0707,172.7902,300.97,83,94,7.49,KI,1612319192
61,salalah,17.0151,54.0924,292.15,39,0,2.06,OM,1612319586
62,punta arenas,-53.15,-70.9167,287.15,67,90,9.77,CL,1612319143
63,yanam,16.7333,82.2167,296.15,78,0,3.09,IN,1612319486
64,illoqqortoormiut,NaN,NaN,NaN,NaN,NaN,NaN,NaN,NaN
65,osoyoos,49.0331,-119.4524,280.15,65,100,3.09,CA,1612319439
66,bilibino,68.0546,166.4372,256.63,87,63,2.32,RU,1612319241
67,new norfolk,-42.7826,147.0587,294.82,38,35,0.89,AU,1612319191
68,portland,45.5234,-122.6762,279.82,87,100,1.34,US,1612319165
69,lolua,NaN,NaN,NaN,NaN,NaN,NaN,NaN,NaN
70,castro,-24.7911,-50.0119,292.09,91,99,1.28,BR,1612319193
71,plettenberg bay,-34.0527,23.3716,293.81,58,0,2.54,ZA,1612319198
72,te anau,-45.4167,167.7167,294.95,52,5,2.17,NZ,1612319430
73,shakhty,47.7091,40.2144,280.15,100,40,3,RU,1612319697
74,margate,51.3813,1.3862,282.59,80,59,2.24,GB,1612319468
75,sawakin,19.1059,37.3321,296.53,82,7,0.8,SD,1612319508
76,pandan,14.0453,124.1694,299.71,82,20,7.48,PH,1612319698
77,sable-sur-sarthe,47.8376,-0.3329,285.93,94,90,6.17,FR,1612319698
78,cape town,-33.9258,18.4232,292.59,88,0,7.72,ZA,1612319416
79,lompoc,34.6391,-120.4579,286.15,88,1,3.6,US,1612319078
80,atsiki,NaN,NaN,NaN,NaN,NaN,NaN,NaN,NaN
81,deputatskiy,69.3,139.9,239.96,88,100,0.96,RU,1612319477
82,kodiak,57.79,-152.4072,275.15,87,90,5.66,US,1612318934
83,bom jesus,-9.0744,-44.3586,295.54,89,20,0.2,BR,1612319431
84,belyy yar,53.6039,91.3903,254.15,71,100,2.22,RU,1612319699
85,blagoyevo,63.3667,47.9167,260.52,94,100,3.85,RU,1612319699
86,bambous virieux,-20.3428,57.7575,299.15,83,75,3.6,MU,1612319118
87,kyra,49.5776,111.9753,253.67,81,0,2.68,RU,1612319699
88,el balyana,NaN,NaN,NaN,NaN,NaN,NaN,NaN,NaN
89,tambura,5.6,27.4667,294.84,35,32,0.94,SS,1612319699
90,kawana waters,NaN,NaN,NaN,NaN,NaN,NaN,NaN,NaN
91,rikitea,-23.1203,-134.9692,299,75,11,7.47,PF,1612319098
92,poum,-20.2333,164.0167,298.52,81,100,11.96,NC,1612319700
93,coquimbo,-29.9533,-71.3436,288.15,82,0,1.03,CL,1612319133
94,bereda,43.2686,-7.5406,283.71,88,65,7.6,ES,1612319700
95,folkestone,51.0833,1.1833,283.15,100,69,4.47,GB,1612319700
96,mykolayivka,47.5414,30.7561,274.6,96,95,2.66,UA,1612319700
97,novi ligure,44.7608,8.7896,277.59,99,100,0.56,IT,1612319700
98,hounde,11.5,-3.5167,293.15,19,0,2.84,BF,1612319700
99,lawan kuda baharu,NaN,NaN,NaN,NaN,NaN,NaN,NaN,NaN
100,yeletskiy,NaN,NaN,NaN,NaN,NaN,NaN,NaN,NaN
101,bluff,-46.6,168.3333,287.59,75,91,3.15,NZ,1612319197
102,nizhneyansk,NaN,NaN,NaN,NaN,NaN,NaN,NaN,NaN
103,kita,13.0349,-9.4895,292.93,21,0,1.89,ML,1612319701
104,caravelas,-17.7125,-39.2481,297.17,87,100,2.08,BR,1612319480
105,natal,-5.795,-35.2094,300.15,78,20,4.12,BR,1612319476
106,sangar,63.9242,127.4739,232.33,79,100,3.47,RU,1612319464
107,san cristobal,7.7669,-72.225,302.15,54,20,1.03,VE,1612319213
108,cockburn town,21.4612,-71.1419,296.65,76,3,6.13,TC,1612319702
109,severo-kurilsk,50.6789,156.125,267.86,91,100,20.24,RU,1612319190
110,le moule,16.3332,-61.3473,298.15,78,75,3.09,GP,1612319703
111,puerto ayora,-0.7393,-90.3518,298.31,85,100,2.56,EC,1612319113
112,kapaa,22.0752,-159.319,298.15,73,40,4.63,US,1612319192
113,stromness,58.965,-3.296,275.15,80,75,11.32,GB,1612319703
114,upata,8.0086,-62.3989,299.26,80,70,1.79,VE,1612319704
115,jiwani,25.05,61.7417,292.5,72,0,2.49,PK,1612319704
116,saint george,37.1041,-113.5841,287.15,54,1,2.06,US,1612319233
117,half moon bay,37.4636,-122.4286,285.37,93,20,1.95,US,1612319188
118,pevek,69.7008,170.3133,260.74,92,100,4.47,RU,1612319065
119,saint anthony,45.0205,-93.218,267.59,79,1,2.1,US,1612319242
120,sakakah,29.9697,40.2064,287.15,35,0,1.54,SA,1612319704
121,el viejo,12.6633,-87.1672,298.56,55,9,2.58,NI,1612319704
122,skagastrond,NaN,NaN,NaN,NaN,NaN,NaN,NaN,NaN
123,yunjinghong,NaN,NaN,NaN,NaN,NaN,NaN,NaN,NaN
124,umea,63.8284,20.2597,260.15,92,90,5.14,SE,1612319705
125,longlac,NaN,NaN,NaN,NaN,NaN,NaN,NaN,NaN
126,mehamn,71.0357,27.8492,268.97,90,98,8.02,NO,1612319397
127,grants pass,42.439,-123.3284,279.15,65,75,1.46,US,1612319705
128,victoria,22.2855,114.1577,293.15,62,35,0.89,HK,1612319056
129,pangnirtung,66.1451,-65.7125,246.34,74,100,0.39,CA,1612319432
130,barcelos,41.5388,-8.6151,287.15,94,90,6.69,PT,1612319496
131,georgetown,5.4112,100.3354,302.15,65,20,1.54,MY,1612319141
132,hilo,19.7297,-155.09,299.15,61,75,5.14,US,1612318985
133,serta,39.8085,-8.0988,285.93,95,100,2.68,PT,1612319706
134,road town,18.4167,-64.6167,300.15,65,20,2.57,VG,1612319442
135,tautira,-17.7333,-149.15,303.15,89,20,3.6,PF,1612319461
136,asyut,27.181,31.1837,282.15,81,0,3.09,EG,1612319706
137,aksarka,66.5606,67.7975,259.92,95,100,1.95,RU,1612319706
138,nikolskoye,59.7035,30.7861,267.15,93,90,6,RU,1612319214
139,talara,-4.5772,-81.2719,295.93,82,7,6.4,PE,1612319707
140,platonovka,52.7106,41.952,269.14,98,100,2.56,RU,1612319707
141,ilheus,-14.7889,-39.0494,298.15,100,75,1.54,BR,1612319707
142,skole,49.0372,23.5135,276.48,80,100,2.68,UA,1612319707
143,buenaventura,3.8801,-77.0312,297.53,91,91,1.21,CO,1612319707
144,mega,4.05,38.3,287.62,47,0,5.53,ET,1612319707
145,canavieiras,-15.675,-38.9472,297.18,91,100,2.39,BR,1612319708
146,aklavik,68.2191,-135.0107,236.15,67,100,1.54,CA,1612319213
147,victor harbor,-35.5667,138.6167,295.37,54,38,3.1,AU,1612319708
148,tuktoyaktuk,69.4541,-133.0374,233.15,74,1,2.06,CA,1612319044
149,palabuhanratu,NaN,NaN,NaN,NaN,NaN,NaN,NaN,NaN
150,port alfred,-33.5906,26.891,295.17,66,19,1.96,ZA,1612319144
151,kamenskoye,NaN,NaN,NaN,NaN,NaN,NaN,NaN,NaN
152,pedernales,18.0384,-71.744,297.65,71,11,1.36,DO,1612319708
153,airai,-8.9266,125.4092,293.81,89,86,1.91,TL,1612319223
154,narsaq,60.9167,-46.05,266.15,53,75,1.03,GL,1612319215
155,constitucion,-35.3333,-72.4167,288.33,79,0,2.26,CL,1612319156
156,iqaluit,63.7506,-68.5145,246.15,69,90,0.34,CA,1612319045
157,tasiilaq,65.6145,-37.6368,267.15,93,90,3.09,GL,1612319147
158,puyo,-1.4667,-77.9833,292.92,92,78,1.21,EC,1612319709
159,sabzevar,36.2126,57.6819,277.41,68,0,2.83,IR,1612319709
160,witrivier,NaN,NaN,NaN,NaN,NaN,NaN,NaN,NaN
161,shihezi,44.3,86.0333,265.6,96,99,0.96,CN,1612319709
162,puerto madryn,-42.7692,-65.0385,295.54,39,0,5.76,AR,1612319639
163,halalo,NaN,NaN,NaN,NaN,NaN,NaN,NaN,NaN
164,dakar,14.6937,-17.4441,292.15,72,0,6.17,SN,1612319462
165,saint-philippe,-21.3585,55.7679,298.15,73,0,2.57,RE,1612319201
166,belushya guba,NaN,NaN,NaN,NaN,NaN,NaN,NaN,NaN
167,houlton,46.1262,-67.8403,272.15,93,90,6.17,US,1612319710
168,hasaki,35.7333,140.8333,283.15,34,20,6.17,JP,1612319197
169,chuy,-33.6971,-53.4616,295.39,91,93,2.42,UY,1612319125
170,umzimvubu,NaN,NaN,NaN,NaN,NaN,NaN,NaN,NaN
171,languyan,5.2618,120.0807,302.42,72,100,1.32,PH,1612319711
172,husavik,66.0449,-17.3389,263.15,62,0,1.54,IS,1612319143
173,hithadhoo,-0.6,73.0833,301.01,70,1,1.87,MV,1612319058
174,tuy hoa,13.0833,109.3,297.05,83,60,6.81,VN,1612319458
175,la ronge,55.1001,-105.2842,265.15,93,100,4.12,CA,1612319508
176,jabiru,NaN,NaN,NaN,NaN,NaN,NaN,NaN,NaN
177,fortuna,40.5982,-124.1573,281.48,81,1,1.2,US,1612319109
178,teguldet,57.3064,88.1667,261.1,95,100,3.33,RU,1612319711
179,lasa,46.6166,10.7002,274.26,93,90,1.54,IT,1612319218
180,tual,-5.6667,132.75,301.37,77,99,8.73,ID,1612319479
181,oistins,13.0667,-59.5333,299.15,65,75,9.77,BB,1612319712
182,cidreira,-30.1811,-50.2056,298.76,86,99,6,BR,1612319214
183,kloulklubed,7.0419,134.2556,303.15,66,75,5.66,PW,1612319012
184,yellowknife,62.456,-114.3525,247.15,76,90,5.14,CA,1612319005
185,burica,NaN,NaN,NaN,NaN,NaN,NaN,NaN,NaN
186,kushiro,42.975,144.3747,265.15,29,40,9.77,JP,1612319395
187,lubu,23.1742,112.2809,293.15,99,69,2.58,CN,1612319712
188,kahului,20.8947,-156.47,301.15,57,40,4.63,US,1612319016
189,vilshofen,48.6333,13.1833,280.93,97,98,3.69,DE,1612319713
190,turukhansk,65.8167,87.9833,251.3,91,99,3.84,RU,1612319713
191,nuevo progreso,23.1667,-97.95,288.15,59,64,1.63,MX,1612319713
192,bambanglipuro,-7.95,110.2833,302.36,69,75,4.49,ID,1612319713
193,mnogovershinnyy,53.9353,139.9242,240.93,83,99,3.54,RU,1612319713
194,orlik,52.5178,99.825,256.71,82,97,1.34,RU,1612319713
195,santa eulalia del rio,NaN,NaN,NaN,NaN,NaN,NaN,NaN,NaN
196,mogadishu,2.0371,45.3438,296.36,79,24,8.6,SO,1612319223
197,chilca,-12.5211,-76.7372,294.26,78,0,3.6,PE,1612319714
198,magnitogorsk,53.4186,59.0472,272.15,100,90,3,RU,1612319471
199,dolbeau,NaN,NaN,NaN,NaN,NaN,NaN,NaN,NaN
200,sedelnikovo,NaN,NaN,NaN,NaN,NaN,NaN,NaN,NaN
201,costinesti,43.95,28.6333,277.04,100,90,4.63,RO,1612319714
202,labuhan,-6.8844,112.2051,301.2,78,81,6.25,ID,1612319065
203,coihaique,-45.5752,-72.0662,290.15,63,0,2.06,CL,1612319126
204,pisco,-13.7,-76.2167,295.93,73,0,3.09,PE,1612319063
205,xining,36.6167,101.7667,269.47,57,0,1.32,CN,1612319715
206,bethel,41.3712,-73.414,270.15,80,90,3.6,US,1612319219
207,lata,40.1629,-8.3327,287.59,94,100,1.34,PT,1612319454
208,hailar,49.2,119.7,243.57,84,1,3.44,CN,1612319189
209,rio grande city,26.3798,-98.8203,292.04,57,100,2.68,US,1612319715
210,bantry,51.6833,-9.45,278.15,93,20,4.63,IE,1612319715
211,burnie,-41.0667,145.9167,291.9,55,67,2.38,AU,1612319518
212,laguna,38.421,-121.4238,286.15,82,75,2.57,US,1612319437
213,seara,41.1818,-7.8003,285.93,9,100,3.13,PT,1612319715
214,standerton,-26.9337,29.2415,287.04,95,100,0.89,ZA,1612319716
215,dikson,73.5069,80.5464,241.76,85,3,6.11,RU,1612319002
216,ribeira grande,38.5167,-28.7,287.1,66,81,15.78,PT,1612319212
217,kavieng,-2.5744,150.7967,302.13,73,20,4.84,PG,1612319079
218,cairns,-16.9167,145.7667,305.37,62,40,4.12,AU,1612319438
219,hollola,61.05,25.4333,267.04,99,100,0.89,FI,1612319716
220,saskylakh,71.9167,114.0833,253.97,91,100,5.84,RU,1612319209
221,vilyuysk,63.7553,121.6247,237.66,83,100,4.4,RU,1612319211
222,sarkand,45.41,79.9186,270.3,76,61,1.81,KZ,1612319716
223,dunedin,-45.8742,170.5036,290.93,74,51,1.34,NZ,1612319192
224,beringovskiy,63.05,179.3167,261.58,95,100,4.17,RU,1612319207
225,tanout,14.9709,8.8879,290.7,23,0,6.1,NE,1612319717
226,tilichiki,60.4667,166.1,267.57,98,97,3.44,RU,1612319430
227,southbridge,42.0751,-72.0334,272.59,94,100,4.41,US,1612319717
228,walvis bay,-22.9575,14.5053,291.48,82,16,1.54,NA,1612319717
229,sikasso,10.9167,-7,293.43,21,0,2.38,ML,1612319717
230,westport,41.1415,-73.3579,272.15,80,90,6.17,US,1612319717
231,santiago del estero,-27.7951,-64.2615,291.43,91,100,4.61,AR,1612319563
232,uyuni,-20.4597,-66.825,284.98,60,100,7.53,BO,1612319718
233,areia branca,-4.9561,-37.1369,299.52,73,34,7.98,BR,1612319718
234,hamza,40.4264,71.4956,273.15,80,0,3.09,UZ,1612319718
235,broome,42.2506,-75.833,268.71,93,90,10.29,US,1612319228
236,sitka,57.0531,-135.33,274.15,69,20,3.31,US,1612319104
237,hirara,24.8,125.2833,293.15,49,20,7.72,JP,1612319491
238,rio cuarto,-33.1307,-64.3499,289.26,94,19,0.89,AR,1612319598
239,rocha,-34.4833,-54.3333,294.04,96,97,1.4,UY,1612319241
240,kruisfontein,-34.0033,24.7314,293.77,56,0,3.15,ZA,1612319042
241,slupsk,54.4641,17.0287,270.97,96,100,1,PL,1612319719
242,matamoros,25.5333,-103.25,295.15,30,40,1.67,MX,1612319451
243,carnarvon,-24.8667,113.6333,298.15,100,75,8.75,AU,1612319207
244,divinopolis,-20.1389,-44.8839,293.2,87,100,0.69,BR,1612319719
245,raton,36.9034,-104.4391,282.15,46,1,2.57,US,1612319720
246,hovd,48.0056,91.6419,259.87,80,5,0.95,MN,1612319498
247,gamba,-2.65,10,298.41,86,96,1.93,GA,1612319720
248,hami,42.8,93.45,271.09,76,99,1.74,CN,1612319251
249,sabang,5.8933,95.3214,300.98,78,8,7.91,ID,1612319720
250,tegal,-6.8694,109.1402,299.67,82,100,5.28,ID,1612319720
251,sussex,41.1834,-74.6663,273.15,74,100,2.57,US,1612319720
252,dhidhdhoo,6.8833,73.1,300.3,74,79,2.44,MV,1612319721
253,japura,-0.3167,102.35,301.26,69,100,2.08,ID,1612319721
254,leningradskiy,69.3833,178.4167,251.38,86,100,8.1,RU,1612319228
255,mahebourg,-20.4081,57.7,299.15,83,75,3.6,MU,1612319109
256,komsomolskiy,40.4272,71.7189,273.15,80,0,3.09,UZ,1612319147
257,aubergenville,48.96,1.8547,283.71,81,75,3.09,FR,1612319721
258,sentyabrskiy,NaN,NaN,NaN,NaN,NaN,NaN,NaN,NaN
259,ruatoria,NaN,NaN,NaN,NaN,NaN,NaN,NaN,NaN
260,eyl,7.9803,49.8164,293.01,76,84,6.62,SO,1612319722
261,taoudenni,22.6783,-3.9836,293.84,24,99,6.11,ML,1612319031
262,talnakh,69.4865,88.3972,247.58,83,89,1.74,RU,1612319165
263,richards bay,-28.783,32.0377,292.66,86,100,1.88,ZA,1612319433
264,aksu,41.1231,80.2644,271.3,73,0,1.31,CN,1612319436
265,bowen,-20.0167,148.2333,304.15,55,40,6.17,AU,1612319468
266,nanortalik,60.1432,-45.2371,263.87,84,0,9.02,GL,1612319495
267,buchanan,5.8808,-10.0467,298.59,89,3,1.85,LR,1612319457
268,gumusyaka,NaN,NaN,NaN,NaN,NaN,NaN,NaN,NaN
269,prince rupert,54.3161,-130.3201,279.15,70,90,1.54,CA,1612319723
270,avarua,-21.2078,-159.775,301.15,78,98,4.63,CK,1612319203
271,colomi,-17.35,-65.8667,293.15,49,40,2.57,BO,1612319723
272,longyearbyen,78.2186,15.6401,270.15,63,40,5.14,SJ,1612319030
273,faanui,-16.4833,-151.75,300.86,75,0,6.71,PF,1612319193
274,oudtshoorn,-33.5907,22.2014,291.15,72,0,2.57,ZA,1612319723
275,lima,-12.0432,-77.0282,294.26,78,0,3.6,PE,1612319198
276,bandarbeyla,9.4942,50.8122,294.49,75,84,6.23,SO,1612319490
277,namibe,-15.1961,12.1522,295.52,73,89,2.49,AO,1612319068
278,basco,20.4487,121.9702,295.41,78,89,13.14,PH,1612319452
279,corning,42.1428,-77.0547,271.15,80,90,5.66,US,1612319724
280,high level,58.5169,-117.136,251.15,77,90,5.14,CA,1612319462
281,nouadhibou,20.931,-17.0347,291.15,68,0,6.17,MR,1612319445
282,roald,62.5833,6.1333,269.15,74,0,5.66,NO,1612319502
283,tiksi,71.6872,128.8694,255.07,93,100,6.39,RU,1612319147
284,pathankot,32.2833,75.65,288.18,40,80,1.89,IN,1612319724
285,mecca,21.4267,39.8261,294.48,80,0,0.55,SA,1612319569
286,honningsvag,70.9821,25.9704,270.5,89,100,8.45,NO,1612319725
287,kaabong,3.4836,34.1492,292.95,47,8,5.9,UG,1612319725
288,vaini,-21.2,-175.2,300.15,89,90,3.09,TO,1612319095
289,cayenne,4.9333,-52.3333,300.15,89,75,5.14,GF,1612319231
290,mileai,NaN,NaN,NaN,NaN,NaN,NaN,NaN,NaN
291,tlahualilo,NaN,NaN,NaN,NaN,NaN,NaN,NaN,NaN
292,amderma,NaN,NaN,NaN,NaN,NaN,NaN,NaN,NaN
293,praya,14.9215,-23.5087,294.15,73,0,7.2,CV,1612319725
294,bluefield,37.2698,-81.2223,267.59,68,20,6.17,US,1612319725
295,mendoza,-32.8908,-68.8272,293.15,64,40,1.77,AR,1612319726
296,faya,18.3851,42.4509,286.15,41,0,1.2,SA,1612319155
297,samusu,NaN,NaN,NaN,NaN,NaN,NaN,NaN,NaN
298,sioux lookout,50.1001,-91.917,268.15,86,90,4.63,CA,1612319475
299,koumac,-20.5667,164.2833,298.24,80,100,9.15,NC,1612319726
300,abu samrah,35.3029,37.1841,283.6,63,100,4.52,SY,1612319455
301,port hardy,50.6996,-127.4199,279.15,87,75,6.06,CA,1612319137
302,bubaque,11.2833,-15.8333,298.61,73,0,5.46,GW,1612319072
303,merauke,-8.4667,140.3333,303.2,71,39,6.18,ID,1612319726
304,upernavik,72.7868,-56.1549,251.2,86,100,2.11,GL,1612319030
305,cedar rapids,42.0083,-91.6441,267.04,93,90,3.09,US,1612319644
306,andevoranto,NaN,NaN,NaN,NaN,NaN,NaN,NaN,NaN
307,bichura,50.5881,107.6022,257,88,91,1.86,RU,1612319727
308,nishihara,26.1842,127.7558,291.15,36,40,5.14,JP,1612319456
309,grand gaube,-20.0064,57.6608,297.59,82,0,1.34,MU,1612319245
310,vaovai,NaN,NaN,NaN,NaN,NaN,NaN,NaN,NaN
311,geraldton,-28.7667,114.6,301.15,57,73,6.69,AU,1612319093
312,tsihombe,NaN,NaN,NaN,NaN,NaN,NaN,NaN,NaN
313,tazovskiy,67.4667,78.7,253.7,93,97,4.33,RU,1612319615
314,torbay,47.6666,-52.7314,271.48,80,90,6.69,CA,1612319198
315,petropavlovsk-kamchatskiy,53.0452,158.6483,266.15,79,75,5,RU,1612319728
316,pringsewu,-5.3582,104.9744,300.09,79,100,2.31,ID,1612319728
317,morondava,-20.2833,44.2833,300.28,82,11,2.99,MG,1612319728
318,rio grande,-32.035,-52.0986,295.15,94,75,1.03,BR,1612319421
319,berea,41.3662,-81.8543,271.48,69,75,9.26,US,1612319728
320,saleaula,NaN,NaN,NaN,NaN,NaN,NaN,NaN,NaN
321,port elizabeth,-33.918,25.5701,290.15,94,0,1.03,ZA,1612319097
322,trezzo,NaN,NaN,NaN,NaN,NaN,NaN,NaN,NaN
323,luanda,-8.8368,13.2343,299.15,83,20,2.06,AO,1612319375
324,katsuura,35.1333,140.3,283.15,43,20,4.12,JP,1612319189
325,altay,47.8667,88.1167,265.05,84,93,0.55,CN,1612319729
326,takoradi,4.8845,-1.7554,298.9,88,0,3.29,GH,1612319432
327,arlit,18.7369,7.3853,289.12,29,0,2.03,NE,1612319204
328,nelson bay,-32.7167,152.15,297.04,64,75,6.17,AU,1612319729
329,chizhou,30.6578,117.4831,286.52,52,0,2.08,CN,1612319729
330,buala,-8.145,159.5921,299.12,90,100,5.77,SB,1612319730
331,svetlyy,54.675,20.1347,272.15,86,40,4,RU,1612319730
332,oktyabrskoye,43.0645,44.7417,272.15,74,28,4,RU,1612319730
333,waitati,-45.75,170.5667,288.15,84,97,9.39,NZ,1612319730
334,tanshui,NaN,NaN,NaN,NaN,NaN,NaN,NaN,NaN
335,willowmore,-33.2926,23.4895,294.37,48,0,6.74,ZA,1612319730
336,bilma,18.6853,12.9164,288.19,33,0,5.25,NE,1612319453
337,labuan,5.2767,115.2417,301.15,78,20,4.12,MY,1612319661
338,ballina,-28.8667,153.5667,300.15,57,40,6.69,AU,1612319730
339,tobane,-21.95,27.9,292.08,87,98,5.17,BW,1612319731
340,tumannyy,NaN,NaN,NaN,NaN,NaN,NaN,NaN,NaN
341,kjopsvik,68.097,16.3742,268.71,92,52,0.51,NO,1612319731
342,dasoguz,41.8363,59.9666,271.15,80,0,4.12,TM,1612319731
343,tokonou,9.65,-9.7833,292.13,27,47,1.51,GN,1612319731
344,codrington,-38.2667,141.9667,292.12,58,39,5.7,AU,1612319200
345,paso de los toros,-32.8167,-56.5167,293.64,91,85,4.09,UY,1612319731
346,severo-yeniseyskiy,60.3725,93.0408,248.3,91,97,1.72,RU,1612319732
347,kendari,-3.945,122.4989,304.41,62,100,0.91,ID,1612319732
348,poya,-21.35,165.15,295.9,86,100,10.87,NC,1612319451
349,paamiut,61.994,-49.6678,258.77,80,0,6.14,GL,1612319732
350,babanusah,NaN,NaN,NaN,NaN,NaN,NaN,NaN,NaN
351,concarneau,47.875,-3.9225,285.15,100,75,2.57,FR,1612319732
352,champasak,14.75,106,297.15,57,0,1.03,LA,1612319732
353,diplo,24.4667,69.584,290.56,66,0,3.05,PK,1612319732
354,tawkar,NaN,NaN,NaN,NaN,NaN,NaN,NaN,NaN
355,pano polemidia,34.7,33,291.15,59,0,9.26,CY,1612319733
356,charters towers,-20.1,146.2667,305.62,40,59,1.52,AU,1612319733
357,namatanai,-3.6667,152.4333,301.77,72,81,3.99,PG,1612319733
358,norman wells,65.282,-126.8329,244.15,76,75,1.03,CA,1612319151
359,lahaina,20.8783,-156.6825,299.15,57,40,4.63,US,1612319733
360,sao jose da coroa grande,-8.8978,-35.1478,298.33,83,22,3.44,BR,1612319733
361,jacareacanga,-6.2222,-57.7528,296.61,96,100,0.77,BR,1612319475
362,montlucon,46.3333,2.6,283.71,95,100,1.34,FR,1612319733
363,vanimo,-2.6741,141.3028,299.81,83,100,2.57,PG,1612319734
364,sorland,67.667,12.6934,272.67,87,73,5.39,NO,1612319247
365,fairbanks,64.8378,-147.7164,246.15,76,1,1.92,US,1612319734
366,avera,33.194,-82.5271,278.15,42,1,5.66,US,1612319227
367,bin qirdan,33.1378,11.2197,287.14,60,0,2.56,TN,1612319734
368,nuuk,64.1835,-51.7216,259.15,61,75,3.6,GL,1612319490
369,sabha,27.0377,14.4283,282.25,62,0,2.56,LY,1612319448
370,bagupaye,13.5689,122.3936,301.33,67,29,4.94,PH,1612319734
371,okmulgee,35.6234,-95.9605,281.15,49,1,3.6,US,1612319735
372,saldanha,-33.0117,17.9442,290.15,82,0,3.6,ZA,1612319143
373,letlhakane,-21.4167,25.5833,292.59,85,100,6.26,BW,1612319735
374,verkhnyaya inta,65.9811,60.3094,261.52,96,100,4.55,RU,1612319720
375,aktas,49.7789,72.9608,268.15,63,0,7,KZ,1612319735
376,aleksandrovsk-sakhalinskiy,50.8975,142.1561,245.68,84,100,5.09,RU,1612319589
377,panacan,9.2463,118.4082,302.15,70,75,7.2,PH,1612319735
378,ugoofaaru,5.6667,73,300.88,72,85,6.09,MV,1612319735
379,sataua,NaN,NaN,NaN,NaN,NaN,NaN,NaN,NaN
380,clyde river,70.4692,-68.5914,238.15,68,1,1.21,CA,1612319220
381,sisimiut,66.9395,-53.6735,252.29,81,0,5.46,GL,1612319144
382,sibolga,1.7427,98.7792,300.65,69,99,0.82,ID,1612319387
383,uige,-7.6087,15.0613,293.22,94,100,1.02,AO,1612319736
384,kysyl-syr,63.8986,122.7617,237.25,82,100,3.34,RU,1612319109
385,hals,56.9961,10.3081,271.15,80,90,3.09,DK,1612319736
386,kharitonovo,61.4009,47.4978,259.07,94,97,3.2,RU,1612319736
387,raudeberg,61.9875,5.1352,270.93,77,0,2.13,NO,1612319135
388,antofagasta,-23.65,-70.4,291.15,82,20,4.12,CL,1612319481
389,beaverlodge,55.2166,-119.4361,252.15,77,90,6.17,CA,1612319737
390,kopargaon,19.8833,74.4833,293.28,25,0,2.08,IN,1612319461
391,cherskiy,68.75,161.3,256.41,85,0,1.53,RU,1612319211
392,vaitupu,NaN,NaN,NaN,NaN,NaN,NaN,NaN,NaN
393,jumla,29.2747,82.1838,274.5,60,0,1.77,NP,1612319224
394,nampa,43.5407,-116.5635,279.82,93,90,5.14,US,1612319737
395,khonuu,NaN,NaN,NaN,NaN,NaN,NaN,NaN,NaN
396,chapais,49.7834,-74.8492,263.15,79,1,4.12,CA,1612319166
397,sokoni,-6.4333,39.55,298.15,83,40,2.64,TZ,1612319738
398,fenoarivo,-18.933,47.4354,290.15,88,20,3.09,MG,1612319738
399,dicabisagan,17.0818,122.4157,296.35,84,99,4.85,PH,1612319455
400,lixourion,38.2019,20.4314,286.01,77,0,1.7,GR,1612319738
401,kodlipet,12.8,75.8833,291.85,76,5,4,IN,1612319738
402,noumea,-22.2763,166.4572,298.15,99,93,14.93,NC,1612319245
403,martapura,-3.4167,114.85,298.15,94,20,2.06,ID,1612319738
404,port hawkesbury,45.6169,-61.3485,278.15,100,90,9.26,CA,1612319618
405,boende,-0.2167,20.8667,295.54,87,0,1.15,CD,1612319739
406,vila do maio,15.1333,-23.2167,294.15,73,0,7.2,CV,1612319739
407,iralaya,15,-83.2333,296.84,72,0,7.93,HN,1612319368
408,manbij,36.5281,37.9549,279.15,87,0,2.57,SY,1612319739
409,sterling,39.0062,-77.4286,273.15,69,90,9.26,US,1612319739
410,san patricio,28.017,-97.5169,289.15,67,40,3.6,US,1612319201
411,iksha,56.1667,37.5167,263.15,85,100,3,RU,1612319740
412,imbituba,-28.24,-48.6703,299.15,89,75,1.03,BR,1612319740
413,beira,-19.8436,34.8389,300.15,94,75,1.54,MZ,1612319740
414,nhulunbuy,-12.2333,136.7667,303.15,74,75,4.12,AU,1612319740
415,casper,42.8666,-106.3131,277.15,56,1,2.57,US,1612319660
416,kaitangata,-46.2817,169.8464,289.26,74,46,12.96,NZ,1612319209
417,karamea,NaN,NaN,NaN,NaN,NaN,NaN,NaN,NaN
418,nemuro,43.3236,145.575,264.15,62,75,3.6,JP,1612319740
419,axim,4.8699,-2.2405,299,88,0,2.9,GH,1612319256
420,buzmeyin,38.0507,58.2056,274.15,86,0,3.34,TM,1612319741
421,ocampo,21.65,-101.5,285.9,40,77,2.59,MX,1612319741
422,kinango,-4.1372,39.3153,300.15,78,75,1.54,KE,1612319741
423,carballo,43.213,-8.691,285.37,81,20,2.68,ES,1612319741
424,waipawa,-41.4122,175.5153,294.82,72,0,5.66,NZ,1612319741
425,alta floresta,-9.8756,-56.0861,296.13,89,97,0.41,BR,1612319252
426,panaba,21.2833,-88.2667,289.2,74,38,1.69,MX,1612319742
427,north platte,41.1239,-100.7654,274.82,86,1,3.09,US,1612319707
428,jizan,17.3333,42.6667,297.15,78,75,4.12,SA,1612319742
429,punta gorda,26.9298,-82.0454,285.37,71,1,4.63,US,1612319742
430,balad,34.0164,44.1453,283.73,55,0,3.03,IQ,1612319742
431,susanville,40.4163,-120.653,276.15,81,75,5.66,US,1612319716
432,karaul,NaN,NaN,NaN,NaN,NaN,NaN,NaN,NaN
433,kutum,14.2,24.6667,292.69,24,0,5.89,SD,1612319743
434,tutoia,-2.7619,-42.2744,299.69,77,0,5.9,BR,1612319685
435,beidao,34.5686,105.8933,280.23,55,97,0.89,CN,1612319608
436,baiyin,36.5583,104.2081,274.82,25,0,2,CN,1612319743
437,kavaratti,10.5669,72.642,300.57,73,8,4.33,IN,1612319465
438,rudsar,37.1376,50.288,282.15,87,90,1.03,IR,1612319743
439,los llanos de aridane,28.6585,-17.9182,290.15,77,90,3.6,ES,1612319504
440,boali,4.8005,18.1275,300.15,78,73,1.07,CF,1612319743
441,egvekinot,66.3167,-179.1667,254.48,91,100,5.63,RU,1612319406
442,veraval,20.9,70.3667,295.26,42,0,5.23,IN,1612319744
443,canutama,-6.5339,-64.3831,296.34,98,99,1.21,BR,1612319744
444,pontes e lacerda,-15.2261,-59.3353,297,85,99,0.71,BR,1612319744
445,dien bien,NaN,NaN,NaN,NaN,NaN,NaN,NaN,NaN
446,tymovskoye,50.8456,142.655,245.14,81,100,4.22,RU,1612319744
447,gondanglegi,-7.7479,112.0132,302.05,75,65,3.26,ID,1612319744
448,crestview,30.7621,-86.5705,279.15,52,1,2.06,US,1612319744
449,mackenzie,55.2999,-123.1698,257.15,60,90,2.06,CA,1612319745
450,orodara,10.9492,-4.9342,296.15,33,0,2.06,BF,1612319745
451,xinxiang,35.3089,113.8672,284.76,37,0,3.05,CN,1612319745
452,miraflores,19.2167,-98.8083,292.15,20,1,4.12,MX,1612319745
453,meulaboh,4.1363,96.1285,299.33,82,47,1.95,ID,1612319248
454,henties bay,-22.116,14.2845,291.48,85,37,2.56,NA,1612319230
455,gimbi,9.1667,35.8333,286.34,55,31,0.74,ET,1612319745
456,kashi,39.4547,75.9797,270.15,59,20,5,CN,1612319746
457,kaga,36.2997,136.3145,277.15,52,75,7.2,JP,1612319746
458,baghmara,23.795,86.2085,290.27,39,0,2.54,IN,1612319746
459,la libertad,-2.2333,-80.9,298.42,80,34,3.44,EC,1612319746
460,dingle,10.9995,122.6711,300.45,79,45,7.5,PH,1612319454
461,haibowan,NaN,NaN,NaN,NaN,NaN,NaN,NaN,NaN
462,adrar,20.5022,-10.0711,292.47,26,58,3.48,MR,1612319746
463,never,46.9896,3.159,285.15,94,90,3.09,FR,1612319746
464,huaicheng,23.9051,112.1931,295.69,53,67,1.24,CN,1612319747
465,berkak,62.825,10.0118,259.06,77,29,2.88,NO,1612319747
466,laurel,39.0993,-76.8483,273.15,74,90,6.17,US,1612319747
467,sinnamary,5.3833,-52.95,298.27,88,79,5.48,GF,1612319747
468,lithakia,37.7167,20.8333,280.15,100,40,2.68,GR,1612319747
469,ciudad arce,13.8403,-89.4472,299.15,38,0,7.2,SV,1612319747
470,deoria,26.5047,83.7872,287.09,57,26,1.55,IN,1612319747
471,shingu,33.7333,135.9833,280.15,42,20,10.29,JP,1612319748
472,urdoma,61.7533,48.5442,260.09,95,99,3.21,RU,1612319748
473,messina,38.1933,15.5497,287.15,76,40,3.6,IT,1612319748
474,krasnogvardeyskiy,57.3793,62.3195,259.79,94,0,2.42,RU,1612319748
475,klaksvik,62.2266,-6.589,272.15,80,0,4.63,FO,1612319438
476,hirado,33.3597,129.5531,280.15,53,75,5.14,JP,1612319748
477,vangaindrano,-23.35,47.6,297.43,83,10,1.23,MG,1612319748
478,meyungs,NaN,NaN,NaN,NaN,NaN,NaN,NaN,NaN
479,umm bab,25.2142,50.8072,287.15,94,1,4.63,QA,1612319748
480,ende,-8.8432,121.6623,302.5,71,99,2.4,ID,1612319749
481,asau,46.4333,26.4,274.26,75,65,2.3,RO,1612319253
482,beloha,-25.1667,45.05,297.8,88,16,4.94,MG,1612319708
483,lulea,65.5842,22.1547,261.15,92,90,0.51,SE,1612319749
484,abbeville,50.1,1.8333,283.15,83,72,5.46,FR,1612319749
485,pangai,-19.8,-174.35,302.15,79,75,2.57,TO,1612319749
486,banjar,-8.19,114.9675,301.15,78,40,3.6,ID,1612319477
487,kencong,-8.2833,113.3667,302.51,67,71,1.85,ID,1612319749
488,baykit,61.67,96.37,248.85,85,100,0.82,RU,1612319102
489,aden,12.7794,45.0367,296.6,78,84,5.25,YE,1612319512
490,khovu-aksy,51.1333,93.6,257.65,84,5,1.97,RU,1612319750
491,tuatapere,-46.1333,167.6833,287.63,79,96,4.33,NZ,1612319136
492,haines junction,60.7522,-137.5108,249.15,70,85,0.5,CA,1612319202
493,platanos,37.6667,21.6167,282.15,100,40,1.77,GR,1612319750
494,diego de almagro,-26.3667,-70.05,286.71,66,38,0.42,CL,1612319750
495,cuamba,-14.8031,36.5372,293.78,95,76,0.53,MZ,1612319487
496,sistranda,63.7256,8.834,265.15,79,20,6.17,NO,1612319490
497,tucuman,-26.8241,-65.2226,291.15,94,90,5.66,AR,1612319751
498,abonnema,4.7084,6.7931,299.26,86,0,1.73,NG,1612319751
499,mount gambier,-37.8333,140.7667,295.15,49,0,3.6,AU,1612319491
500,souillac,-20.5167,57.5167,299.15,83,75,3.6,MU,1612319243
501,puerto rico,-26.796,-55.024,296.68,92,60,1.02,AR,1612319731
502,soyo,-6.1349,12.3689,299.6,83,100,3.81,AO,1612319730
503,kijang,35.2442,129.2139,274.15,19,0,3.6,KR,1612319751
504,lakatoro,-16.0999,167.4164,302.44,69,7,7.05,VU,1612319752
505,yurga,55.7231,84.8861,260.52,94,100,6.03,RU,1612319752
506,samarai,-10.6167,150.6667,302.42,69,37,1.69,PG,1612319235
507,cape coast,5.1053,-1.2466,299.29,87,0,3.8,GH,1612319752
508,male,4.1748,73.5089,301.15,83,75,6.69,MV,1612319752
509,binga,-17.6203,27.3414,295.52,89,100,1.57,ZW,1612319752
510,yar-sale,66.8333,70.8333,256.1,94,89,1.88,RU,1612319222
511,lubuk pakam,3.5604,98.8767,300.15,94,20,2.57,ID,1612319752
512,puno,-15.8333,-70.0333,279.07,85,100,3,PE,1612319752
513,vao,-22.6667,167.4833,298.32,78,25,17.6,NC,1612319114
514,wagar,16.1525,36.2032,293.12,63,0,3.76,SD,1612319753
515,pemba,-12.974,40.5178,298.71,94,75,2.06,MZ,1612319561
516,kodinsk,58.6881,99.1844,251.06,89,100,1.53,RU,1612319753
517,provideniya,64.3833,-173.3,258.53,91,100,7.58,RU,1612319107
518,lochmaben,55.1301,-3.4429,277.59,100,75,8.23,GB,1612319753
519,mandal,25.45,74.5667,291.75,26,0,1.79,IN,1612319753
520,salo,45.6086,10.531,278.71,100,75,2.06,IT,1612319754
521,herat,34.5,62,276.15,70,0,1.54,AF,1612319754
522,tura,25.5198,90.2201,289.82,53,0,0.84,IN,1612319228
523,isangel,-19.55,169.2667,303.15,74,75,7.72,VU,1612319118
524,hofn,64.2539,-15.2082,273.06,94,100,7.1,IS,1612319017
525,polunochnoye,60.8697,60.4153,258.13,94,98,2.17,RU,1612319754
526,ewa beach,21.3156,-158.0072,299.15,65,20,4.63,US,1612319754
527,vestmannaeyjar,63.4427,-20.2734,275.66,82,67,14.59,IS,1612319073
528,el ocote,15.4167,-86.5667,292.15,82,75,1.03,HN,1612319754
529,necochea,-38.5473,-58.7368,287.59,90,38,0.45,AR,1612319505
530,shumikha,55.2261,63.2961,263.48,97,100,2.81,RU,1612319589
531,anadyr,64.75,177.4833,262.15,79,75,9,RU,1612319212
532,maloshuyka,NaN,NaN,NaN,NaN,NaN,NaN,NaN,NaN
533,tupiza,-21.45,-65.7167,287.21,59,100,4.15,BO,1612319755
534,ipameri,-17.7219,-48.1597,293.82,79,99,1.59,BR,1612319755
535,bose,45.4612,8.0137,278.15,96,35,0.67,IT,1612319755
536,kalemie,-5.9475,29.1947,293.58,84,29,0.5,CD,1612319755
537,kudahuvadhoo,2.6708,72.8944,301.11,72,99,4.36,MV,1612319756
538,mmathubudukwane,-24.6,26.4333,291.57,82,100,4.88,BW,1612319756
539,venice,27.0998,-82.4543,287.15,54,40,8.75,US,1612319756
540,moranbah,-22.0016,148.0466,305.95,35,64,3.64,AU,1612319491
541,weligama,5.9667,80.4167,297.62,86,26,1.63,LK,1612319143
542,sao joao da barra,-21.6403,-41.0511,298.19,86,55,7.04,BR,1612319182
543,kelvington,52.1667,-103.5343,274.15,69,100,5.14,CA,1612319756
544,okandja,NaN,NaN,NaN,NaN,NaN,NaN,NaN,NaN
545,warqla,NaN,NaN,NaN,NaN,NaN,NaN,NaN,NaN
546,tezu,27.9167,96.1667,295.63,27,0,0.91,IN,1612319757
547,barawe,NaN,NaN,NaN,NaN,NaN,NaN,NaN,NaN
548,sao filipe,14.8961,-24.4956,295.69,75,0,3.46,CV,1612319114
549,nyurba,63.2842,118.3319,240.77,84,100,4.22,RU,1612319476
550,sola,-13.8833,167.55,300.53,83,12,8.73,VU,1612319194
551,ternate,0.8,127.4,301.9,67,0,2.54,ID,1612319757
552,jacqueville,5.2052,-4.4146,300.15,100,20,1.54,CI,1612319757
553,debre birhan,9.6833,39.5333,279.43,59,10,2.42,ET,1612319757
554,general roca,-39.0333,-67.5833,298.33,21,7,2.97,AR,1612319758
555,guane,22.2025,-84.0875,289.49,73,41,2.28,CU,1612319758
556,hay river,60.8156,-115.7999,248.15,70,100,4.12,CA,1612319758
557,wyndham,37.6985,-77.6125,275.15,51,90,2.06,US,1612319758
558,vanavara,60.34,102.2797,248.83,89,100,2.16,RU,1612319758
559,novaya malykla,54.2,49.95,260.69,94,67,2.08,RU,1612319759
560,bolshaya irba,NaN,NaN,NaN,NaN,NaN,NaN,NaN,NaN
561,buraydah,26.326,43.975,288.15,51,0,4.12,SA,1612319479
562,toora-khem,52.4675,96.11,255.56,88,96,0.65,RU,1612319759
563,qidong,31.8128,121.6561,285.37,55,3,1.79,CN,1612319759
564,watertown,42.3709,-71.1828,273.71,93,90,5.66,US,1612319759
565,kasongo-lunda,-6.4667,16.8167,294.24,89,100,0.19,CD,1612319505
566,mount darwin,-16.7725,31.5838,292.21,97,100,1.21,ZW,1612319759
567,lakhipur,26.0299,90.3041,292.22,48,0,1.99,IN,1612319760
568,kang,-23.6752,22.7876,292.46,91,100,6.52,BW,1612319760
569,blaricum,52.2725,5.2417,283.15,96,92,1.79,NL,1612319760
570,ngukurr,NaN,NaN,NaN,NaN,NaN,NaN,NaN,NaN
571,ahipara,-35.1667,173.1667,294.64,60,14,3.08,NZ,1612319447
572,mantamados,39.3117,26.3339,283.15,93,75,2.06,GR,1612319760
573,kemin,42.7846,75.6892,273.13,78,0,3.39,KG,1612319760
574,tsabong,-26.0217,22.401,293.45,83,100,5.8,BW,1612319761
575,chernyshevsk,52.5243,117.0174,243.4,80,0,1.41,RU,1612319761
576,bathurst,-33.4166,149.5806,297.04,48,0,1.79,AU,1612319741
577,mountain home,43.133,-115.6912,280.15,100,90,4.12,US,1612319525
578,yambio,4.5721,28.3955,294.5,40,6,0.59,SS,1612319710
579,santa cruz,-17.8,-63.1667,298.15,94,75,3.6,BO,1612319210
580,san andres,12.5847,-81.7006,299.15,78,20,9.26,CO,1612319761
581,digha,21.6833,87.55,291.51,34,0,3.4,IN,1612319761
582,lavrentiya,65.5833,-171,258.14,86,100,10.43,RU,1612319166
583,grand river south east,NaN,NaN,NaN,NaN,NaN,NaN,NaN,NaN
584,girne,35.3417,33.3167,285.15,82,75,2.57,CY,1612319762
585,grindavik,63.8424,-22.4338,273.15,64,0,7.72,IS,1612319256
586,naze,28.3667,129.4833,289.15,51,75,5.66,JP,1612319412
587,bustamante,26.5333,-100.5,289.11,47,71,3.89,MX,1612319762
588,muncar,-8.4333,114.3333,301.83,73,100,1.25,ID,1612319762
589,carmen,18.6333,-91.8333,293.1,64,29,3.6,MX,1612319763
590,hulyaypole,47.6653,36.2578,280.3,93,96,1.67,UA,1612319763
591,hvammstangi,NaN,NaN,NaN,NaN,NaN,NaN,NaN,NaN
592,hobyo,5.3505,48.5268,296.25,78,91,6.51,SO,1612319203
593,port-gentil,-0.7193,8.7815,300.25,82,100,4.45,GA,1612319763
594,elizabeth city,36.2946,-76.2511,276.48,75,90,4.63,US,1612319740
595,chicama,-7.8447,-79.1469,294.98,69,69,2.38,PE,1612319144
596,muros,42.7762,-9.0603,287.04,81,10,7.15,ES,1612319450
597,nieuw amsterdam,5.8833,-55.0833,298.15,94,72,1.34,SR,1612319763
598,rio de jesus,7.9844,-81.1631,297.35,75,5,1.62,PA,1612319764
599,jiuquan,39.7432,98.5174,271.36,64,31,0.27,CN,1612319764
600,batemans bay,-35.7167,150.1833,296.48,54,89,2.24,AU,1612319764
601,acajutla,13.5928,-89.8275,297.22,50,0,4.82,SV,1612319495
602,kerman,30.2832,57.0788,269.15,36,0,2.06,IR,1612319764
603,pointe michel,15.25,-61.3833,298.29,71,1,5.23,DM,1612319765
604,aykhal,66,111.5,242.73,83,100,4.91,RU,1612319221
605,denau,NaN,NaN,NaN,NaN,NaN,NaN,NaN,NaN
606,concepcion,-36.827,-73.0498,286.15,100,90,5.14,CL,1612319765
607,maragogi,-9.0122,-35.2225,298.34,83,15,3.23,BR,1612319765
608,rungata,NaN,NaN,NaN,NaN,NaN,NaN,NaN,NaN
609,bahia honda,22.9036,-83.1592,290.77,68,0,4.77,CU,1612319765
610,guadalajara,20.6667,-103.3333,294.82,22,40,3.09,MX,1612319537
611,ipixuna,-1.7625,-48.8043,299.15,89,0,4.12,BR,1612319766
612,neiafu,-18.65,-173.9833,302.15,84,75,4.12,TO,1612319766
613,san pedro,14.35,121.0167,302.15,61,40,1.03,PH,1612319766
614,ancud,-41.8697,-73.8203,287.59,82,0,4.63,CL,1612319189
615,touros,-5.1989,-35.4608,299.15,78,20,2.57,BR,1612319480
616,porto velho,-8.7619,-63.9039,296.15,94,75,1.03,BR,1612319756
617,yuci,37.6803,112.7319,272.15,24,0,1,CN,1612319766
618,escuinapa,22.85,-105.8,293.15,73,20,3.09,MX,1612319767
619,dudinka,69.4058,86.1778,251,91,98,3.39,RU,1612319767
620,mollendo,-17.0231,-72.0147,294.26,77,94,2.39,PE,1612319767
621,mananjary,-21.2167,48.3333,297.9,77,0,0.72,MG,1612319767
622,lahij,13.1667,44.5833,291.38,89,95,1.57,YE,1612319767
623,thunder bay,48.4001,-89.3168,264.26,85,1,1.03,CA,1612319768
624,qui nhon,13.7667,109.2333,296.88,83,90,7.25,VN,1612319736
625,youghal,51.95,-7.8506,280.37,93,20,4.63,IE,1612319768
626,mareeba,-17,145.4333,305.37,65,99,2.24,AU,1612319217
627,olafsvik,64.8945,-23.7142,274.15,85,100,5.44,IS,1612319506
628,siderno,38.2779,16.302,287.15,82,75,4.63,IT,1612319768
629,ensenada,31.8667,-116.6167,288.71,85,99,1.79,MX,1612319689
630,muyezerskiy,63.9333,31.65,255.14,93,0,1.26,RU,1612319768
631,turayf,31.6725,38.6637,283.15,66,0,7.2,SA,1612319459
632,nusaybin,37.0778,41.2178,283.15,53,0,3.6,TR,1612319769
633,arcata,40.8665,-124.0828,282.04,81,20,1.54,US,1612319769
634,alpena,45.0617,-83.4327,268.15,74,1,3.6,US,1612319769
635,tungkang,NaN,NaN,NaN,NaN,NaN,NaN,NaN,NaN
636,cap malheureux,-19.9842,57.6142,297.59,82,0,1.34,MU,1612319253
637,changli,39.7042,119.1506,269.94,85,98,2.96,CN,1612319769
638,mendahara,NaN,NaN,NaN,NaN,NaN,NaN,NaN,NaN
639,shakiso,5.75,38.9167,283.85,52,0,1.88,ET,1612319770
640,cape canaveral,28.4058,-80.6048,282.15,61,1,5.14,US,1612319770
