,City,Lat,Lng,Max Temp,Humidity,Cloudiness,Wind Speed,Country,Date
0,bredasdorp,-34.5322,20.0403,292.15,88,98,1.54,ZA,1612661936
1,puerto ayora,-0.7393,-90.3518,298.15,94,66,3.02,EC,1612661936
2,rikitea,-23.1203,-134.9692,299.14,69,73,4.72,PF,1612661936
3,mirnyy,62.5353,113.9611,245.09,88,100,1.6,RU,1612661936
4,kahului,20.8947,-156.47,299.15,50,40,5.14,US,1612661649
5,srisailam,16.0833,78.8667,290.97,67,98,0.63,IN,1612661706
6,simao,22.7886,100.9748,288.6,91,57,0.79,CN,1612661937
7,illoqqortoormiut,NaN,NaN,NaN,NaN,NaN,NaN,NaN,NaN
8,barahona,18.2085,-71.1008,297.3,72,51,4.95,DO,1612661937
9,bethel,41.3712,-73.414,274.82,59,1,2.12,US,1612661937
10,nanortalik,60.1432,-45.2371,269.99,92,100,3.07,GL,1612661937
11,victoria,22.2855,114.1577,295.93,46,0,4.92,HK,1612661937
12,hermanus,-34.4187,19.2345,292.59,93,97,0.45,ZA,1612661774
13,igarka,67.4667,86.5833,242.89,84,2,4.78,RU,1612661938
14,jish,33.0222,35.4469,279.71,100,0,0.76,IL,1612661938
15,leshukonskoye,64.8989,45.7622,243.38,84,76,4.26,RU,1612661938
16,hobart,-42.8794,147.3294,293.15,45,75,7.2,AU,1612661938
17,port elizabeth,-33.918,25.5701,294.15,78,0,8.75,ZA,1612661938
18,busselton,-33.65,115.3333,289.82,96,100,0.89,AU,1612661939
19,kruisfontein,-34.0033,24.7314,290.93,88,1,0.45,ZA,1612661939
20,sitio novo do tocantins,-5.5183,-47.4611,296.41,85,71,0.93,BR,1612661939
21,charlestown,-32.95,151.6667,301.48,50,90,3.6,AU,1612661939
22,tuatapere,-46.1333,167.6833,295.28,47,10,2.7,NZ,1612661856
23,geraldton,-28.7667,114.6,295.15,78,90,10.29,AU,1612661675
24,maneadero,31.7167,-116.5667,286.48,88,0,1.34,MX,1612661940
25,mataura,-46.1927,168.8643,300.85,44,5,0.6,NZ,1612661940
26,grand gaube,-20.0064,57.6608,297.04,86,2,0.89,MU,1612661940
27,taolanaro,NaN,NaN,NaN,NaN,NaN,NaN,NaN,NaN
28,saskylakh,71.9167,114.0833,232.04,78,24,3.39,RU,1612661769
29,atasu,48.6814,71.6433,265.9,96,98,10.15,KZ,1612661940
30,khatanga,71.9667,102.5,235.77,78,0,3.82,RU,1612661850
31,mar del plata,-38.0023,-57.5575,290.93,77,20,5.14,AR,1612661941
32,jalu,29.0331,21.5482,287.52,43,0,3.92,LY,1612661941
33,nassau,40.7507,-73.5829,277.15,48,1,2.57,US,1612661756
34,hilo,19.7297,-155.09,299.15,53,75,2.57,US,1612661788
35,tasiilaq,65.6145,-37.6368,274.15,55,82,12.86,GL,1612661941
36,raudeberg,61.9875,5.1352,268.71,68,0,3.6,NO,1612661941
37,radyvyliv,50.1299,25.2558,265.24,86,100,4.7,UA,1612661942
38,nao-me-toque,NaN,NaN,NaN,NaN,NaN,NaN,NaN,NaN
39,sakakah,29.9697,40.2064,281.15,71,0,3.6,SA,1612661842
40,vaini,-21.2,-175.2,302.15,84,75,4.12,TO,1612661942
41,balikpapan,-1.2675,116.8289,301.15,83,20,3.09,ID,1612661942
42,ushuaia,-54.8,-68.3,283.15,76,75,5.66,AR,1612661942
43,kapaa,22.0752,-159.319,296.48,49,40,3.09,US,1612661720
44,jablah,35.3614,35.9256,286.15,76,0,4.12,SY,1612661942
45,shitanjing,39.2342,106.3439,271.28,76,0,0.48,CN,1612661943
46,tuktoyaktuk,69.4541,-133.0374,246.15,76,90,8.75,CA,1612661762
47,butaritari,3.0707,172.7902,300.36,81,71,9.29,KI,1612661790
48,lebu,-37.6167,-73.65,287.68,94,83,0.83,CL,1612661943
49,port alfred,-33.5906,26.891,293.15,87,33,2.24,ZA,1612661807
50,narsaq,60.9167,-46.05,268.38,81,100,1.94,GL,1612661943
51,cape town,-33.9258,18.4232,294.26,83,20,5.14,ZA,1612661689
52,longyearbyen,78.2186,15.6401,264.15,86,75,5.66,SJ,1612661943
53,pangnirtung,66.1451,-65.7125,268.43,80,76,1.58,CA,1612661944
54,tarakan,3.3,117.6333,300.15,89,75,2.06,ID,1612661944
55,qaanaaq,77.484,-69.3632,261.31,87,100,3.38,GL,1612661944
56,angangxi,NaN,NaN,NaN,NaN,NaN,NaN,NaN,NaN
57,albany,42.6001,-73.9662,269.82,46,0,0.9,US,1612661944
58,louisbourg,NaN,NaN,NaN,NaN,NaN,NaN,NaN,NaN
59,anadyr,64.75,177.4833,250.37,84,11,4,RU,1612661944
60,gazanjyk,39.2446,55.5154,280.58,85,100,4.43,TM,1612661690
61,souillac,-20.5167,57.5167,298.15,83,40,2.06,MU,1612661921
62,bjornevatn,69.6672,29.9847,269.15,86,75,11.83,NO,1612661719
63,hoi an,15.8794,108.335,294.15,94,75,1.03,VN,1612661864
64,sibu,2.3,111.8167,298.15,94,40,0.51,MY,1612661736
65,rosita,13.9268,-84.4032,295.58,95,8,0.7,NI,1612661945
66,castro,-24.7911,-50.0119,289.45,92,44,4.82,BR,1612661770
67,amderma,NaN,NaN,NaN,NaN,NaN,NaN,NaN,NaN
68,kalengwa,-13.4659,25.0027,290.96,98,100,1.25,ZM,1612661649
69,pinheiro machado,-31.5783,-53.3811,287.04,95,0,0.92,BR,1612661946
70,sentyabrskiy,NaN,NaN,NaN,NaN,NaN,NaN,NaN,NaN
71,kano,12.0001,8.5167,288.15,41,100,2.06,NG,1612661946
72,farmington,36.7281,-108.2187,279.15,22,1,3.6,US,1612661656
73,tacoronte,28.4769,-16.4102,285.93,93,75,9.26,ES,1612661946
74,kilis,36.7161,37.115,276.15,81,0,1.98,TR,1612661946
75,langham,52.3668,-106.9679,243.15,69,20,2.57,CA,1612661946
76,mbanza-ngungu,-5.25,14.8667,293.27,100,100,1.5,CD,1612661947
77,saldanha,-33.0117,17.9442,291.15,88,0,3.09,ZA,1612661918
78,tiksi,71.6872,128.8694,241.06,84,100,2.39,RU,1612661947
79,okhotsk,59.3833,143.3,256.64,86,94,9.12,RU,1612661947
80,sampit,-2.5333,112.95,301.74,78,100,1.35,ID,1612661947
81,lompoc,34.6391,-120.4579,289.15,63,1,4.12,US,1612661824
82,bathsheba,13.2167,-59.5167,298.15,73,20,5.14,BB,1612661947
83,codrington,-38.2667,141.9667,289.32,65,100,5.48,AU,1612661947
84,avarua,-21.2078,-159.775,303.15,66,17,4.63,CK,1612661786
85,cherskiy,68.75,161.3,253.96,81,0,1.67,RU,1612661772
86,new norfolk,-42.7826,147.0587,293.15,45,39,1.34,AU,1612661948
87,thompson,55.7435,-97.8558,240.15,68,40,5.66,CA,1612661948
88,saint-philippe,-21.3585,55.7679,299.15,73,75,3.09,RE,1612661914
89,severo-kurilsk,50.6789,156.125,267.99,93,93,9.8,RU,1612661948
90,severo-yeniseyskiy,60.3725,93.0408,267.19,97,93,4.58,RU,1612661948
91,bengkulu,-3.8004,102.2655,301.67,63,84,1.84,ID,1612661949
92,la ronge,55.1001,-105.2842,242.15,62,43,2.57,CA,1612661949
93,yellowknife,62.456,-114.3525,233.15,74,1,1.54,CA,1612661817
94,north bend,43.4065,-124.2243,282.15,87,90,2.06,US,1612661735
95,atuona,-9.8,-139.0333,299.77,81,94,8.81,PF,1612661949
96,vao,-22.6667,167.4833,298.72,80,0,2.44,NC,1612661949
97,najran,17.4924,44.1277,288.15,51,0,1.54,SA,1612661663
98,pietarsaari,63.65,22.6833,264.82,85,40,1.03,FI,1612661949
99,chokurdakh,70.6333,147.9167,243.51,86,98,1.89,RU,1612661950
100,tres lagoas,-20.7511,-51.6783,293.16,75,0,2.17,BR,1612661950
101,hambantota,6.1241,81.1185,295.15,100,20,0.51,LK,1612661950
102,paamiut,61.994,-49.6678,269.33,81,50,1.57,GL,1612661950
103,kaitangata,-46.2817,169.8464,292.04,74,2,4.47,NZ,1612661950
104,guerrero negro,27.9769,-114.0611,290.71,54,0,4.23,MX,1612661710
105,bambous virieux,-20.3428,57.7575,298.15,83,40,2.06,MU,1612661950
106,henties bay,-22.116,14.2845,290.37,90,7,1.34,NA,1612661950
107,mahebourg,-20.4081,57.7,298.15,83,40,2.06,MU,1612661951
108,tumannyy,NaN,NaN,NaN,NaN,NaN,NaN,NaN,NaN
109,olafsvik,64.8945,-23.7142,273.98,84,24,7.19,IS,1612661951
110,punta arenas,-53.15,-70.9167,284.15,66,0,7.72,CL,1612661951
111,hofn,64.2539,-15.2082,273.27,93,99,7.96,IS,1612661951
112,goya,-29.14,-59.2626,293.63,59,0,2.74,AR,1612661951
113,ponta do sol,32.6667,-17.1,285.37,67,4,2.68,PT,1612661684
114,rorvik,64.8621,11.2373,268.58,92,41,3.48,NO,1612661952
115,jamestown,42.097,-79.2353,265.15,49,1,3.09,US,1612661745
116,provideniya,64.3833,-173.3,256.18,87,2,3.23,RU,1612661952
117,barrow,71.2906,-156.7887,252.15,77,90,6.69,US,1612661774
118,manuk mangkaw,4.8,119.85,300.84,80,100,4.82,PH,1612661840
119,kaseda,31.4167,130.3167,285.15,71,40,5.14,JP,1612661835
120,cockburn town,21.4612,-71.1419,298.15,78,40,7.72,TC,1612661898
121,sahy,48.0741,18.9495,278.15,92,100,4.02,SK,1612661952
122,muisne,0.6,-80.0333,298.89,87,98,1.38,EC,1612661692
123,fort frances,48.5999,-93.4003,247.15,64,40,3.6,CA,1612661864
124,saleaula,NaN,NaN,NaN,NaN,NaN,NaN,NaN,NaN
125,novaya zaimka,56.4857,66.9241,265.12,95,100,9.58,RU,1612661953
126,yar,58.249,52.1026,251.79,90,100,3.84,RU,1612661953
127,namibe,-15.1961,12.1522,294.6,81,35,2.27,AO,1612661762
128,chuy,-33.6971,-53.4616,292.36,90,0,3.92,UY,1612661953
129,masumbwe,-3.6333,32.1833,292.35,90,100,1.05,TZ,1612661953
130,marathon,44.9,-89.7668,253.15,54,1,5.66,US,1612661954
131,troitsk,54.0979,61.5773,257.79,86,55,10.04,RU,1612661954
132,torbay,47.6666,-52.7314,279.26,93,75,10.8,CA,1612661807
133,sesheke,-17.4759,24.2968,292.66,95,100,2.05,ZM,1612661954
134,haibowan,NaN,NaN,NaN,NaN,NaN,NaN,NaN,NaN
135,nizhnyaya poyma,56.1622,97.1933,265.45,95,100,2.49,RU,1612661954
136,garissa,-0.4536,39.6401,297.28,73,1,4.03,KE,1612661954
137,kulu,39.0951,33.0799,280.3,58,0,2.72,TR,1612661954
138,zhezkazgan,47.8043,67.7144,263.21,95,52,6.51,KZ,1612661955
139,port shepstone,-30.7414,30.455,296.42,86,100,1.44,ZA,1612661955
140,flinders,-34.5833,150.8552,301.48,65,3,1.79,AU,1612661865
141,georgetown,5.4112,100.3354,300.15,83,20,1.03,MY,1612661728
142,praia da vitoria,38.7333,-27.0667,289.26,82,20,6.15,PT,1612661827
143,tynda,55.1667,124.7167,248.17,83,97,0.86,RU,1612661955
144,mount isa,-20.7333,139.5,299.15,94,75,4.12,AU,1612661956
145,marcona,NaN,NaN,NaN,NaN,NaN,NaN,NaN,NaN
146,otane,-39.8833,176.6333,297.04,45,83,2.24,NZ,1612661956
147,moose jaw,50.4001,-105.5344,244.15,76,97,1.03,CA,1612661956
148,attawapiskat,NaN,NaN,NaN,NaN,NaN,NaN,NaN,NaN
149,lorengau,-2.0226,147.2712,303.36,66,100,2.48,PG,1612661956
150,dickinson,29.4608,-95.0513,289.26,77,1,2.57,US,1612661863
151,buala,-8.145,159.5921,298.54,82,100,2.2,SB,1612661957
152,arraial do cabo,-22.9661,-42.0278,297.11,83,100,2.15,BR,1612661692
153,tazovskiy,67.4667,78.7,241.4,86,64,4.61,RU,1612661957
154,le havre,49.4938,0.1077,278.15,93,90,8.75,FR,1612661957
155,nouadhibou,20.931,-17.0347,289.15,72,0,7.2,MR,1612661808
156,east london,-33.0153,27.9116,295.76,87,75,7.86,ZA,1612661891
157,antofagasta,-23.65,-70.4,292.15,77,75,3.6,CL,1612661705
158,barbar,NaN,NaN,NaN,NaN,NaN,NaN,NaN,NaN
159,barentsburg,NaN,NaN,NaN,NaN,NaN,NaN,NaN,NaN
160,camacha,33.0833,-16.3333,288.15,67,75,6.17,PT,1612661958
161,karpogory,64.0019,44.4451,245.04,85,69,4.45,RU,1612661958
162,kuche,NaN,NaN,NaN,NaN,NaN,NaN,NaN,NaN
163,xichang,27.8964,102.2634,283.16,48,0,1.51,CN,1612661958
164,mitchell,43.7094,-98.0298,255.15,60,1,2.57,US,1612661958
165,umm durman,NaN,NaN,NaN,NaN,NaN,NaN,NaN,NaN
166,alice springs,-23.7,133.8833,303.71,26,4,6.69,AU,1612661958
167,salinas,36.6777,-121.6555,289.15,63,1,4.12,US,1612661959
168,naze,28.3667,129.4833,292.15,63,20,3.09,JP,1612661959
169,catamarca,-28.4696,-65.7852,292.59,86,0,0.45,AR,1612661776
170,faanui,-16.4833,-151.75,301.53,65,0,4.5,PF,1612661773
171,maldonado,-34.6667,-54.9167,292.15,88,20,1.54,UY,1612661846
172,tommot,58.9564,126.2925,247.5,83,100,0.17,RU,1612661959
173,kuusamo,65.9667,29.1833,265.15,86,90,4.63,FI,1612661959
174,dalvik,65.9702,-18.5286,274.15,69,75,2.57,IS,1612661959
175,port lincoln,-34.7333,135.8667,290.49,67,99,5.52,AU,1612661959
176,kroya,-7.6331,109.2461,302.13,70,76,1.09,ID,1612661960
177,ngukurr,NaN,NaN,NaN,NaN,NaN,NaN,NaN,NaN
178,san quintin,30.4833,-115.95,288.77,72,0,3.03,MX,1612661960
179,norman wells,65.282,-126.8329,240.15,68,75,1.03,CA,1612661960
180,rio claro,-22.4114,-47.5614,295.15,78,0,5.14,BR,1612661960
181,bluff,-46.6,168.3333,289.51,71,0,3.56,NZ,1612661793
182,coquimbo,-29.9533,-71.3436,289.15,82,0,3.09,CL,1612661960
183,kloulklubed,7.0419,134.2556,298.15,94,90,6.69,PW,1612661941
184,karkaralinsk,NaN,NaN,NaN,NaN,NaN,NaN,NaN,NaN
185,am timan,11.0297,20.2827,290.23,28,49,3.5,TD,1612661961
186,esik,43.3552,77.4525,277.15,65,90,5,KZ,1612661961
187,alenquer,-1.9417,-54.7383,298.15,88,0,1.03,BR,1612661961
188,hobyo,5.3505,48.5268,297.96,79,59,7.08,SO,1612661961
189,trairi,-3.2778,-39.2689,298.59,84,3,2.87,BR,1612661961
190,vila velha,-20.3297,-40.2925,301.48,83,75,4.12,BR,1612661961
191,saint-pierre,-21.3393,55.4781,299.15,73,75,3.09,RE,1612661962
192,puerto colombia,10.9878,-74.9547,299.15,78,0,6.69,CO,1612661814
193,antalaha,-14.9003,50.2788,296.72,87,99,1.85,MG,1612661962
194,tura,25.5198,90.2201,289.65,57,100,0.05,IN,1612661961
195,waipawa,-41.4122,175.5153,297.59,72,89,3.6,NZ,1612661714
196,lagoa,39.05,-27.9833,288.7,92,100,11.91,PT,1612661935
197,leningradskiy,69.3833,178.4167,249.66,74,0,2.58,RU,1612661946
198,mizdah,31.4451,12.9801,289.07,31,100,2.15,LY,1612661962
199,luderitz,-26.6481,15.1594,292.83,70,0,10.15,NA,1612661963
200,belushya guba,NaN,NaN,NaN,NaN,NaN,NaN,NaN,NaN
201,kodiak,57.79,-152.4072,276.15,65,1,4.63,US,1612661963
202,samarai,-10.6167,150.6667,303.4,68,51,1.83,PG,1612661836
203,douentza,14.9951,-2.9517,296.48,20,100,4.4,ML,1612661963
204,stepnyak,52.8339,70.7803,263.39,93,97,13.82,KZ,1612661963
205,livingston,55.9029,-3.5226,275.93,69,90,7.2,GB,1612661963
206,khani,41.9563,42.9566,281.15,81,0,5.66,GE,1612661963
207,zelenogorskiy,55.0333,87,271.15,86,0,5,RU,1612661964
208,port blair,11.6667,92.75,300.36,70,0,4.4,IN,1612661964
209,lagoa vermelha,-28.2086,-51.5258,285.86,87,0,2.28,BR,1612661964
210,fortuna,40.5982,-124.1573,283.15,93,40,5.14,US,1612661964
211,kvitok,56.0724,98.4813,265.22,95,95,1.89,RU,1612661964
212,muskegon,43.3,-86.1334,265.15,67,90,6.17,US,1612661774
213,portland,45.5234,-122.6762,281.48,87,90,7.2,US,1612661319
214,leh,34.1667,77.5833,258.41,48,0,1.17,IN,1612661964
215,maputo,-25.9653,32.5892,299.26,88,40,1.03,MZ,1612661965
216,innisfail,-17.5333,146.0333,303.41,69,100,3.04,AU,1612661953
217,paita,-5.0892,-81.1144,296.84,76,83,5.65,PE,1612661965
218,thinadhoo,0.5333,72.9333,300.64,74,12,5.92,MV,1612661815
219,quesnel,52.9999,-122.5029,263.15,79,90,4.12,CA,1612661965
220,iskateley,67.6803,53.1512,240.87,85,99,6.04,RU,1612661965
221,praia,14.9215,-23.5087,293.15,64,75,9.26,CV,1612661965
222,pevek,69.7008,170.3133,251.72,87,0,2.19,RU,1612661966
223,rawson,-43.3002,-65.1023,287.73,71,13,8.46,AR,1612661966
224,avera,33.194,-82.5271,278.15,91,90,4.12,US,1612661795
225,hof,50.3167,11.9167,272.04,96,100,3.58,DE,1612661966
226,mehamn,71.0357,27.8492,269.64,94,100,9.96,NO,1612661966
227,vestmannaeyjar,63.4427,-20.2734,276.69,76,0,12.24,IS,1612661966
228,kostino,58.9097,53.2691,251.48,90,100,3.27,RU,1612661966
229,batagay-alyta,67.8006,130.4114,241,83,100,0.72,RU,1612661966
230,marsh harbour,26.5412,-77.0636,297.08,85,0,8.02,BS,1612661716
231,svetlogorsk,52.6333,29.7333,255.42,93,3,2.34,BY,1612661967
232,kutum,14.2,24.6667,281.25,52,0,3.74,SD,1612661830
233,airai,-8.9266,125.4092,295.82,74,72,2.41,TL,1612661716
234,ambanja,-13.6833,48.45,296.28,89,81,1.62,MG,1612661967
235,san patricio,28.017,-97.5169,291.15,52,1,1.54,US,1612661967
236,samusu,NaN,NaN,NaN,NaN,NaN,NaN,NaN,NaN
237,tacuarembo,-31.7333,-55.9833,291.76,66,0,1.15,UY,1612661968
238,maghama,NaN,NaN,NaN,NaN,NaN,NaN,NaN,NaN
239,prince rupert,54.3161,-130.3201,278.15,81,90,3.6,CA,1612661968
240,richards bay,-28.783,32.0377,295.56,86,87,3.16,ZA,1612661907
241,horodnytsya,50.807,27.3168,261.64,86,99,2.7,UA,1612661968
242,zhigalovo,54.8097,105.1578,260.89,93,100,1.2,RU,1612661968
243,umtata,-31.5889,28.7844,292.15,77,13,0.51,ZA,1612661968
244,takab,36.4009,47.1133,275.8,87,100,0.39,IR,1612661968
245,skibbereen,51.55,-9.2667,275.15,93,20,3.6,IE,1612661969
246,yar-sale,66.8333,70.8333,240.82,86,100,7.54,RU,1612661969
247,vaitupu,NaN,NaN,NaN,NaN,NaN,NaN,NaN,NaN
248,oktyabrskiy,54.4815,53.471,254.24,89,100,6.63,RU,1612661969
249,hithadhoo,-0.6,73.0833,300.54,75,61,5.71,MV,1612661765
250,artesia,33.8658,-118.0831,293.15,59,1,2.06,US,1612661969
251,caico,-6.4583,-37.0978,298.82,67,1,3.77,BR,1612661969
252,deniliquin,-35.5333,144.9667,297.59,44,0,0.89,AU,1612661970
253,kadykchan,NaN,NaN,NaN,NaN,NaN,NaN,NaN,NaN
254,kamen-rybolov,44.7481,132.0403,258.09,87,15,3.12,RU,1612661970
255,udachnyy,66.4167,112.4,235.88,80,6,2.9,RU,1612661970
256,sao filipe,14.8961,-24.4956,293.88,74,18,6.69,CV,1612661970
257,sechura,-5.5569,-80.8222,297.89,66,90,6.09,PE,1612661970
258,susanville,40.4163,-120.653,282.15,53,1,3.09,US,1612661684
259,harper,4.375,-7.7169,299.27,88,0,3.94,LR,1612661970
260,matagami,49.7502,-77.6328,258.15,85,90,5.14,CA,1612661971
261,lasa,46.6166,10.7002,277.04,92,100,2.43,IT,1612661971
262,alofi,-19.0595,-169.9187,303.15,70,100,5.66,NU,1612661971
263,muleba,-1.8397,31.6544,292.54,79,44,1.93,TZ,1612661971
264,uruguaiana,-29.7547,-57.0883,295.15,78,0,2.26,BR,1612661828
265,manacapuru,-3.2997,-60.6206,298.15,94,0,1.06,BR,1612661971
266,pochutla,15.7432,-96.4661,299.26,80,9,0.89,MX,1612661972
267,moree,-29.4667,149.85,301.15,47,40,6.69,AU,1612661972
268,bay roberts,47.5999,-53.2648,279.15,93,75,10.8,CA,1612661945
269,esperance,-33.8667,121.9,289.15,94,75,5.66,AU,1612661798
270,havoysund,70.9963,24.6622,270.46,93,100,9.53,NO,1612661972
271,homer,59.6425,-151.5483,274.15,60,1,4.12,US,1612661715
272,hasaki,35.7333,140.8333,287.04,54,20,2.06,JP,1612661774
273,davenport,41.5236,-90.5776,259.15,78,75,5.14,US,1612661972
274,kyabram,-36.3167,145.05,297.59,44,8,0.89,AU,1612661972
275,lixourion,38.2019,20.4314,287.66,71,100,4.63,GR,1612661973
276,antakya,36.2066,36.1572,286.15,71,0,2.06,TR,1612661973
277,sol-iletsk,51.1631,54.9918,259.41,94,100,5.94,RU,1612661973
278,ginda,30.6945,78.4932,278.34,51,0,3.14,IN,1612661973
279,bairiki,1.3292,172.9752,302.15,74,75,5.14,KI,1612661973
280,nikolskoye,59.7035,30.7861,261.15,85,90,9,RU,1612661965
281,upernavik,72.7868,-56.1549,265.69,76,28,1.66,GL,1612661973
282,sobolevo,54.4299,31.8996,252.69,92,68,3.6,RU,1612661974
283,cidreira,-30.1811,-50.2056,292.86,77,10,2.37,BR,1612661974
284,belaya gora,68.5333,146.4167,238.84,82,0,0.28,RU,1612661722
285,kodinsk,58.6881,99.1844,265.28,96,100,3.06,RU,1612661715
286,caramay,10.1815,119.236,300.92,74,100,4.05,PH,1612661974
287,cozumel,20.5083,-86.9458,299.26,89,1,3.6,MX,1612661888
288,sale,34.0389,-6.8166,283.71,100,75,5.66,MA,1612661974
289,baykit,61.67,96.37,265.95,94,100,2.69,RU,1612661974
290,umzimvubu,NaN,NaN,NaN,NaN,NaN,NaN,NaN,NaN
291,karaul,NaN,NaN,NaN,NaN,NaN,NaN,NaN,NaN
292,svetlyy,54.675,20.1347,267.59,84,0,1,RU,1612661975
293,saint-andre-les-vergers,48.2853,4.0521,280.15,100,90,5.14,FR,1612661975
294,emba,48.8264,58.1442,260.96,94,83,4.76,KZ,1612661975
295,mairi,-11.7114,-40.1489,295.83,83,85,2.12,BR,1612661975
296,strezhevoy,60.7333,77.5889,274.15,93,90,6,RU,1612661975
297,tecoanapa,16.5167,-98.75,298.35,73,0,3.2,MX,1612661976
298,mount gambier,-37.8333,140.7667,290.15,59,90,6.17,AU,1612661976
299,acapulco,16.8634,-99.8901,300.15,74,1,2.06,MX,1612661976
300,akyab,20.15,92.9,291.66,54,0,2.53,MM,1612661932
301,aguimes,27.9054,-15.4461,289.26,82,75,5.14,ES,1612661976
302,bogotol,56.2078,89.5342,266.09,96,100,3.96,RU,1612661976
303,goderich,43.7501,-81.7165,266.15,79,100,7.72,CA,1612661976
304,vestbygda,NaN,NaN,NaN,NaN,NaN,NaN,NaN,NaN
305,mattru,7.6244,-11.8332,296.98,82,50,0.95,SL,1612661977
306,helena,46.5927,-112.0361,260.15,78,90,5.66,US,1612661684
307,riva,38.9521,-76.578,279.15,56,1,2.49,US,1612661977
308,sumbawa,NaN,NaN,NaN,NaN,NaN,NaN,NaN,NaN
309,asau,46.4333,26.4,270.37,72,100,1.63,RO,1612661977
310,petatlan,17.5167,-101.2667,301.15,74,1,0.83,MX,1612661977
311,dikson,73.5069,80.5464,240.11,87,90,4.28,RU,1612661977
312,pisco,-13.7,-76.2167,295.15,83,75,4.12,PE,1612661800
313,fort saint john,NaN,NaN,NaN,NaN,NaN,NaN,NaN,NaN
314,iganga,0.6092,33.4686,294.92,70,70,0.79,UG,1612661978
315,katsuura,35.1333,140.3,285.93,54,20,2.06,JP,1612661978
316,tlapacoyan,19.9667,-97.2167,294.22,87,18,0.28,MX,1612661978
317,maniitsoq,65.4167,-52.9,272.28,81,0,9.38,GL,1612661978
318,moron,-34.6534,-58.6198,300.37,54,0,1.47,AR,1612661978
319,tual,-5.6667,132.75,301.97,79,100,9.13,ID,1612661978
320,malwan,NaN,NaN,NaN,NaN,NaN,NaN,NaN,NaN
321,nunoa,-14.48,-70.6411,279.6,77,98,2.1,PE,1612661979
322,moose factory,51.2585,-80.6094,253.15,77,90,1.54,CA,1612661979
323,boa vista,2.8197,-60.6733,301.15,65,0,3.6,BR,1612661979
324,kasama,-10.2129,31.1808,290.7,97,100,1.24,ZM,1612661979
325,college,64.8569,-147.8028,252.59,77,90,0.59,US,1612661979
326,lavrentiya,65.5833,-171,249.24,80,0,0.45,RU,1612661979
327,grand river south east,NaN,NaN,NaN,NaN,NaN,NaN,NaN,NaN
328,fare,-16.7,-151.0167,301.21,68,2,4.83,PF,1612661979
329,emerald,-23.5333,148.1667,308.71,46,75,2.57,AU,1612661980
330,lydenburg,-25.0978,30.4597,289.95,89,100,0.17,ZA,1612661980
331,turukhansk,65.8167,87.9833,252.48,88,98,4.22,RU,1612661980
332,macae,-22.3708,-41.7869,294.15,100,90,2.06,BR,1612661980
333,beloha,-25.1667,45.05,296.48,95,23,1.38,MG,1612661695
334,cartagena del chaira,1.3349,-74.8429,296.54,95,98,0.93,CO,1612661696
335,steamboat springs,40.485,-106.8317,272.59,55,90,4.12,US,1612661980
336,prata,-19.3072,-48.9242,294.29,79,18,1.54,BR,1612661980
337,pokrovsk-uralskiy,NaN,NaN,NaN,NaN,NaN,NaN,NaN,NaN
338,ntoum,0.3833,9.7833,296.15,94,20,3.6,GA,1612661981
339,den helder,52.9599,4.7593,272.59,74,90,14.4,NL,1612661850
340,cabo san lucas,22.8909,-109.9124,294.15,60,20,3.6,MX,1612661913
341,necochea,-38.5473,-58.7368,288.71,80,2,5.17,AR,1612661693
342,san cristobal,7.7669,-72.225,301.15,65,100,1.03,VE,1612661981
343,helmstedt,52.2279,11.0099,268.71,89,100,3.58,DE,1612661981
344,ilulissat,69.2167,-51.1,269.15,39,0,13.89,GL,1612661981
345,zyryanka,65.75,150.85,248.46,85,0,4.06,RU,1612661981
346,redmond,47.674,-122.1215,281.48,79,74,2.68,US,1612661781
347,usinsk,65.9939,57.5281,236.87,81,96,6.52,RU,1612661982
348,yumen,40.2833,97.2,273.28,64,100,1.54,CN,1612661982
349,himora,NaN,NaN,NaN,NaN,NaN,NaN,NaN,NaN
350,adrar,20.5022,-10.0711,286.44,42,100,4.41,MR,1612661982
351,kitgum,3.2783,32.8867,292.13,30,18,0.5,UG,1612661982
352,karakose,NaN,NaN,NaN,NaN,NaN,NaN,NaN,NaN
353,bure,10.7,37.0667,283.78,44,100,1.6,ET,1612661982
354,ouadda,8.0777,22.4007,289.72,29,12,3.04,CF,1612661982
355,berlevag,70.8578,29.0864,269.98,95,100,11.82,NO,1612661983
356,asyut,27.181,31.1837,285.15,82,0,2.57,EG,1612661983
357,popondetta,-8.7537,148.2534,305.74,54,100,1.96,PG,1612661983
358,batsfjord,70.6345,29.7185,269.35,95,100,11.18,NO,1612661983
359,oga,46.4631,10.347,283.71,100,100,2.31,IT,1612661983
360,muroto,33.2833,134.15,286.15,44,20,2.06,JP,1612661983
361,barra patuca,15.8,-84.2833,299,82,0,6.84,HN,1612661983
362,nizhneyansk,NaN,NaN,NaN,NaN,NaN,NaN,NaN,NaN
363,saint george,37.1041,-113.5841,287.15,17,1,5.14,US,1612661765
364,fort wellington,6.4,-57.6,298.24,83,100,5.24,GY,1612661984
365,seoul,37.5683,126.9778,278.15,93,90,2.06,KR,1612661244
366,ambon,-3.6954,128.1814,305.15,62,40,2.06,ID,1612661984
367,bambanglipuro,-7.95,110.2833,302.1,69,9,2.15,ID,1612661984
368,vardo,70.3705,31.1107,270.32,92,100,13.13,NO,1612661984
369,faya,18.3851,42.4509,281.15,87,40,0.38,SA,1612661984
370,kurumkan,54.3,110.3,253.36,84,100,0.72,RU,1612661985
371,mersing,2.4312,103.8405,299.15,83,20,4.63,MY,1612661767
372,jauja,-11.7758,-75.4966,282.51,74,79,2.32,PE,1612661985
373,sao joao da barra,-21.6403,-41.0511,294.87,96,100,6.56,BR,1612661985
374,halalo,NaN,NaN,NaN,NaN,NaN,NaN,NaN,NaN
375,araguacu,-12.9306,-49.8264,295.38,97,100,3.8,BR,1612661985
376,kamenskoye,NaN,NaN,NaN,NaN,NaN,NaN,NaN,NaN
377,ghanzi,-21.5667,21.7833,292.7,93,100,3.68,BW,1612661986
378,iturama,-19.7281,-50.1956,294.18,67,0,2.38,BR,1612661986
379,bagdarin,54.4333,113.6,251.09,80,0,0.43,RU,1612661986
380,ribeira grande,38.5167,-28.7,289.34,88,95,9.78,PT,1612661783
381,rungata,NaN,NaN,NaN,NaN,NaN,NaN,NaN,NaN
382,yingzhong,NaN,NaN,NaN,NaN,NaN,NaN,NaN,NaN
383,kuytun,54.3419,101.5036,260.95,93,100,2.51,RU,1612661986
384,carnarvon,-24.8667,113.6333,302.15,100,40,6.17,AU,1612661784
385,kavieng,-2.5744,150.7967,302.76,65,50,2.22,PG,1612661987
386,teya,60.3778,92.6267,266.96,94,90,3.89,RU,1612661867
387,ekhabi,53.5102,142.9671,256.94,94,100,3.86,RU,1612661987
388,malartic,48.1335,-78.1328,261.15,72,20,3.09,CA,1612661880
389,gorontalo,0.5412,123.0595,302.99,67,99,1.7,ID,1612661987
390,sitka,57.0531,-135.33,274.15,55,40,3.09,US,1612661987
391,aban,56.67,96.06,268.5,96,100,4.45,RU,1612661987
392,dingle,10.9995,122.6711,300.64,81,79,6.71,PH,1612661988
393,samalaeulu,NaN,NaN,NaN,NaN,NaN,NaN,NaN,NaN
394,huancabamba,-5.2386,-79.4506,288.93,81,99,0.77,PE,1612661988
395,caravelas,-17.7125,-39.2481,298.79,86,100,4.66,BR,1612661988
396,merauke,-8.4667,140.3333,302.25,77,98,6.75,ID,1612661988
397,port hardy,50.6996,-127.4199,279.15,75,75,3.6,CA,1612661751
398,la linea,-27.6243,-55.0388,289.26,88,0,0.77,AR,1612661988
399,bereda,43.2686,-7.5406,274.82,100,62,1.34,ES,1612661737
400,okuchi,32.0667,130.6167,285.15,71,40,5.14,JP,1612661988
401,ostrovnoy,68.0531,39.5131,260.01,92,100,4.81,RU,1612661989
402,ahipara,-35.1667,173.1667,293.88,66,95,0.72,NZ,1612661989
403,filingue,14.3521,3.3168,295.35,21,10,3.5,NE,1612661989
404,doha,25.2867,51.5333,294.15,83,0,3.6,QA,1612661989
405,windhoek,-22.5594,17.0832,293.15,73,0,2.57,NA,1612661878
406,silver city,32.7701,-108.2803,283.15,17,1,3.6,US,1612661989
407,aklavik,68.2191,-135.0107,251.15,71,90,5.14,CA,1612661820
408,vila franca do campo,37.7167,-25.4333,288.15,88,75,10.29,PT,1612661990
409,mys shmidta,NaN,NaN,NaN,NaN,NaN,NaN,NaN,NaN
410,lolua,NaN,NaN,NaN,NaN,NaN,NaN,NaN,NaN
411,oktyabrskoye,43.0645,44.7417,273.15,86,100,1,RU,1612661990
412,turbana,10.2717,-75.4422,300.15,78,0,3.6,CO,1612661990
413,saint-leu,-21.15,55.2833,298.15,62,48,0.87,RE,1612661990
414,laguna,38.421,-121.4238,290.15,48,1,2.06,US,1612661833
415,taoudenni,22.6783,-3.9836,288.43,35,70,4.37,ML,1612661928
416,pacific grove,36.6177,-121.9166,286.15,88,1,2.06,US,1612661991
417,warqla,NaN,NaN,NaN,NaN,NaN,NaN,NaN,NaN
418,manama,26.2154,50.5832,293.15,83,20,3.09,BH,1612661696
419,makung,NaN,NaN,NaN,NaN,NaN,NaN,NaN,NaN
420,winslow,35.0242,-110.6974,284.15,17,1,2.57,US,1612661991
421,isangel,-19.55,169.2667,303.15,79,20,2.57,VU,1612661991
422,touros,-5.1989,-35.4608,298.15,88,20,2.06,BR,1612661992
423,tubruq,NaN,NaN,NaN,NaN,NaN,NaN,NaN,NaN
424,sola,-13.8833,167.55,301.11,70,59,1.52,VU,1612661992
425,the valley,18.217,-63.0578,299.15,83,40,5.14,AI,1612661703
426,ambovombe,-25.1667,46.0833,297.55,95,23,2.69,MG,1612661992
427,komsomolskiy,40.4272,71.7189,278.15,56,100,2.06,UZ,1612661992
428,formosa do rio preto,-11.0483,-45.1931,295.06,83,100,0.13,BR,1612661992
429,ancud,-41.8697,-73.8203,290.37,51,0,5.14,CL,1612661992
430,buraydah,26.326,43.975,282.15,100,75,3.09,SA,1612661993
431,semporna,4.4818,118.6112,301.15,83,20,1.03,MY,1612661821
432,iqaluit,63.7506,-68.5145,270.15,68,90,5.14,CA,1612661993
433,ortigueira,-24.2083,-50.9494,289.67,85,0,1.03,BR,1612661993
434,puerto pinasco,NaN,NaN,NaN,NaN,NaN,NaN,NaN,NaN
435,tambun,-6.2641,107.0712,302.04,89,75,2.06,ID,1612661993
436,barawe,NaN,NaN,NaN,NaN,NaN,NaN,NaN,NaN
437,rong kwang,18.339,100.3174,292.15,94,2,0.17,TH,1612661993
438,mamallapuram,12.6264,80.1722,293.15,88,20,3.36,IN,1612661994
439,qaqortoq,60.7167,-46.0333,267.89,83,95,1.52,GL,1612661994
440,hailar,49.2,119.7,250.06,86,0,2.21,CN,1612661994
441,sorland,67.667,12.6934,275.13,80,100,8.18,NO,1612661994
442,wulanhaote,NaN,NaN,NaN,NaN,NaN,NaN,NaN,NaN
443,chicama,-7.8447,-79.1469,296.02,65,100,2.99,PE,1612661994
444,smithers,54.7804,-127.1743,269.15,93,90,1.54,CA,1612661994
445,ksenyevka,NaN,NaN,NaN,NaN,NaN,NaN,NaN,NaN
446,tirano,46.2154,10.1679,283.71,99,100,0.71,IT,1612661995
447,kaabong,3.4836,34.1492,292.11,34,79,1.74,UG,1612661995
448,athabasca,54.7169,-113.2854,243.15,76,100,1.03,CA,1612661995
449,meulaboh,4.1363,96.1285,299.49,83,80,2.01,ID,1612661993
450,samoylovka,51.184,43.7081,256.54,91,99,5.99,RU,1612661995
451,abrau-dyurso,44.69,37.59,270.15,86,100,7,RU,1612661996
452,kavaratti,10.5669,72.642,300.63,59,57,3.83,IN,1612661996
453,bonthe,7.5264,-12.505,298.4,82,3,2,SL,1612661956
454,agadez,19.75,10.25,287.74,31,0,2.4,NE,1612661996
455,grindavik,63.8424,-22.4338,273.15,64,0,8.75,IS,1612661996
456,huacho,-11.1067,-77.605,294.85,78,100,3.31,PE,1612661996
457,kaya,13.0917,-1.0844,297.81,20,100,3.97,BF,1612661996
458,kondinskoye,59.6481,67.41,273.43,97,100,5.75,RU,1612661997
459,clyde river,70.4692,-68.5914,251.15,77,90,1.03,CA,1612661997
460,broken hill,-31.95,141.4333,294.15,52,0,6.69,AU,1612661997
461,camopi,3.1655,-52.3158,295.07,98,100,0.74,GF,1612661997
462,kargil,34.5667,76.1,250.13,64,0,0.44,IN,1612661997
463,dubbo,-32.25,148.6167,299.15,57,40,4.12,AU,1612661997
464,de aar,-30.6497,24.0123,295.38,59,0,3.31,ZA,1612661998
465,rantepao,-2.9701,119.8978,301.08,60,84,0.65,ID,1612661958
466,bosaso,11.2842,49.1816,295.64,77,51,1.82,SO,1612661998
467,tautira,-17.7333,-149.15,303.15,62,20,5.66,PF,1612661998
468,moen,69.1304,18.6123,269.15,86,75,4.12,NO,1612661998
469,sartell,45.6216,-94.2069,250.15,59,1,5.14,US,1612661998
470,gornyatskiy,48.2915,40.9575,266.9,85,100,5.92,RU,1612661998
471,sakaiminato,35.55,133.2333,284.15,76,75,4.12,JP,1612661716
472,nortelandia,-14.4547,-56.8028,297.7,76,95,1.11,BR,1612661999
473,peniche,39.3558,-9.3811,284.26,69,0,3.58,PT,1612661999
474,placido de castro,-10.3353,-67.1856,296.7,88,100,0.76,BR,1612661999
475,daru,-9.0763,143.2092,304.9,61,17,3.96,PG,1612661999
476,vagur,61.4732,-6.8119,275.94,77,100,9.17,FO,1612661999
477,russell,32.3502,-85.1999,279.15,87,90,3.6,US,1612661982
478,guanare,9.0418,-69.7421,299.2,63,61,1.4,VE,1612661999
479,kovdor,67.5662,30.4758,264.83,96,100,4.91,RU,1612661999
480,huarmey,-10.0681,-78.1522,294.87,77,100,3.09,PE,1612662000
481,chengde,40.9725,117.9361,268.84,65,20,4.73,CN,1612662000
482,broome,42.2506,-75.833,269.15,33,1,1.54,US,1612661841
483,mawlaik,23.6333,94.4167,291.26,52,0,0.44,MM,1612662000
484,bayir,37.2687,28.2167,279.15,100,20,1.54,TR,1612662000
485,dunedin,-45.8742,170.5036,289.26,77,0,11.18,NZ,1612662001
486,lensk,60.7253,114.9278,255.8,90,94,1.59,RU,1612662001
487,lodingen,68.414,15.9951,269.26,93,40,0.33,NO,1612662001
488,algiers,36.7525,3.042,285.15,94,40,1.54,DZ,1612661783
489,baghdad,33.3406,44.4009,286.15,94,75,3.6,IQ,1612661817
490,port dickson,2.5228,101.7959,300.15,74,20,3.09,MY,1612662002
491,moindou,-21.6924,165.677,304.15,62,40,4.63,NC,1612662002
492,angra,NaN,NaN,NaN,NaN,NaN,NaN,NaN,NaN
493,tsihombe,NaN,NaN,NaN,NaN,NaN,NaN,NaN,NaN
494,ambilobe,-13.2,49.05,295.77,94,99,1.23,MG,1612662003
495,macia,-25.0269,33.0989,294.38,93,84,0.99,MZ,1612662003
496,port hedland,-20.3167,118.5667,303.15,58,40,5.14,AU,1612661839
497,gigmoto,13.7796,124.39,300.74,77,84,5.9,PH,1612662003
498,petropavlovsk-kamchatskiy,53.0452,158.6483,271.15,59,40,8,RU,1612662004
499,magadan,59.5667,150.8,264.6,87,100,6.19,RU,1612662004
500,brindisi,40.5833,17.6667,288.15,82,40,7.72,IT,1612662004
501,port-gentil,-0.7193,8.7815,300.65,79,99,6.16,GA,1612661977
502,husavik,66.0449,-17.3389,274.15,69,75,2.57,IS,1612662004
503,ranfurly,-45.1333,170.1,299.26,48,0,0.89,NZ,1612662004
504,urubicha,-15.3833,-62.95,298.17,61,48,0.95,BO,1612662005
505,caloundra,-26.8,153.1333,303.71,71,18,2.24,AU,1612662005
506,shimoda,34.6667,138.95,285.93,55,3,0.89,JP,1612662005
507,sokoto,13.0609,5.239,294.1,22,4,4.29,NG,1612662005
508,masty,53.4122,24.5387,251.95,92,0,1.05,BY,1612662006
509,choma,-16.8065,26.9531,290.85,93,81,1.67,ZM,1612661709
510,kang,-23.6752,22.7876,292.68,90,89,4,BW,1612662006
511,gemena,3.25,19.7667,294.68,74,11,0.45,CD,1612662006
512,derzhavinsk,51.1,66.3167,260,93,100,11.22,KZ,1612662006
513,christchurch,-43.5333,172.6333,293.15,60,20,9.26,NZ,1612662006
514,panjwin,NaN,NaN,NaN,NaN,NaN,NaN,NaN,NaN
515,yelizovo,53.1873,158.3805,271.15,59,40,8,RU,1612662006
516,clarksdale,34.2001,-90.5709,279.15,100,100,4.12,US,1612662007
517,olinda,-8.0089,-34.8553,299.15,73,20,2.57,BR,1612662007
518,lerwick,60.1545,-1.1494,274.15,60,90,7.72,GB,1612662007
519,jamame,0.0722,42.7506,296,90,1,3.43,SO,1612662007
520,zeya,53.75,127.2667,251.61,80,0,1.35,RU,1612662007
521,marawi,7.9986,124.2928,299.82,81,74,1.79,PH,1612662008
522,srednekolymsk,67.45,153.6833,248.05,84,0,0.72,RU,1612662008
523,tocopilla,-22.092,-70.1979,293.22,68,10,1.78,CL,1612662008
524,kasempa,-13.4584,25.8338,291.22,97,100,2,ZM,1612662008
525,isla mujeres,21.2311,-86.731,299.82,89,1,4.12,MX,1612662008
526,samarina,57.8878,27.8054,256.15,92,15,2,RU,1612662008
527,santana do livramento,-30.8908,-55.5328,291.42,66,0,1.25,BR,1612662008
528,comodoro rivadavia,-45.8667,-67.5,286.15,71,40,3.6,AR,1612661750
529,coxim,-18.5067,-54.76,295.89,65,8,1.9,BR,1612662009
530,itarema,-2.9248,-39.9167,298.69,84,28,4.24,BR,1612662009
531,cooma,-36.2333,149.1333,293.15,49,1,3.6,AU,1612662009
532,dryden,49.7833,-92.7503,246.15,69,90,8.23,CA,1612662009
533,porto santo,33.072,-16.3415,288.15,67,75,6.17,PT,1612662009
534,cayenne,4.9333,-52.3333,298.15,100,90,3.6,GF,1612662009
535,asnaes,55.8123,11.5013,267.04,75,2,5.81,DK,1612662009
536,gobabis,-22.45,18.9667,293.21,76,0,2.57,NA,1612662010
537,fremont,37.5483,-121.9886,291.15,51,1,3.09,US,1612661887
538,boueni,-12.9025,45.0761,300.15,78,0,4.12,YT,1612662010
539,ulladulla,-35.35,150.4667,298.71,50,75,0.51,AU,1612661995
540,bhachau,23.2833,70.35,288.43,44,0,4.43,IN,1612662010
541,kayerkan,69.3497,87.7602,239.34,75,0,2.06,RU,1612661718
542,kishi,9.0833,3.85,296.34,29,57,1.05,NG,1612662010
543,galiwinku,NaN,NaN,NaN,NaN,NaN,NaN,NaN,NaN
544,ardistan,NaN,NaN,NaN,NaN,NaN,NaN,NaN,NaN
545,san policarpo,12.1791,125.5072,300.53,84,100,6.92,PH,1612661728
546,jibuti,11.5,42.5,297.15,73,75,1.91,DJ,1612662011
547,marabba,12.35,32.1833,288.89,33,33,4.86,SD,1612662011
548,pingliang,35.5392,106.6861,277.04,22,100,1.79,CN,1612662011
549,sambava,-14.2667,50.1667,296.8,89,91,1.99,MG,1612662011
550,quelimane,-17.8786,36.8883,301.15,89,20,1.46,MZ,1612662011
551,maceio,-9.6658,-35.7353,298.15,88,20,1.54,BR,1612662011
552,rovaniemi,66.5,25.7167,264.15,92,0,4.12,FI,1612661869
553,karamay,NaN,NaN,NaN,NaN,NaN,NaN,NaN,NaN
554,carolina,18.3808,-65.9574,298.15,78,40,6.69,PR,1612661960
555,cheuskiny,NaN,NaN,NaN,NaN,NaN,NaN,NaN,NaN
556,cuajinicuilapa,16.4667,-98.4167,296.71,77,0,1.52,MX,1612662012
557,atakpame,7.5333,1.1333,298.66,77,82,2.1,TG,1612662012
558,kashi,39.4547,75.9797,274.15,51,20,5,CN,1612661769
559,kalety,50.5627,18.8926,267.04,86,90,7.2,PL,1612662013
560,rio gallegos,-51.6226,-69.2181,286.15,58,0,1.54,AR,1612662013
561,krasnyy chikoy,50.3643,108.7512,255.25,87,99,1.16,RU,1612662013
562,dauriya,49.9333,116.8667,250.35,88,100,1.56,RU,1612662013
563,falealupo,NaN,NaN,NaN,NaN,NaN,NaN,NaN,NaN
564,riyadh,24.6877,46.7219,286.15,71,0,3.6,SA,1612662013
565,leua,48.2156,18.6071,278.15,92,100,4.02,SK,1612662013
566,half moon bay,37.4636,-122.4286,291.15,76,1,3.09,US,1612661804
567,myszkow,50.5752,19.3246,267.04,100,100,4.02,PL,1612662014
568,hun,29.1268,15.9477,291.17,27,100,4.16,LY,1612662014
569,abu samrah,35.3029,37.1841,282.43,74,0,2.12,SY,1612662014
570,murray bridge,-35.1167,139.2667,289.82,86,69,6.16,AU,1612662014
571,campbell river,50.0163,-125.2446,279.15,65,20,6.17,CA,1612661927
572,coihaique,-45.5752,-72.0662,293.15,40,0,8.75,CL,1612662014
573,chagda,NaN,NaN,NaN,NaN,NaN,NaN,NaN,NaN
574,hualmay,-11.0964,-77.6139,294.78,78,100,3.32,PE,1612662015
575,mecca,21.4267,39.8261,291.49,58,0,2.8,SA,1612661735
576,jabiru,NaN,NaN,NaN,NaN,NaN,NaN,NaN,NaN
577,yulara,-25.2406,130.9889,303.15,23,1,7.72,AU,1612662015
578,sur,22.5667,59.5289,289.91,66,0,3.03,OM,1612662015
579,mayo,38.8876,-76.5119,279.15,56,1,1.98,US,1612662015
580,rodrigues alves,-7.738,-72.6509,297.27,87,50,0.43,BR,1612662015
581,tabulbah,NaN,NaN,NaN,NaN,NaN,NaN,NaN,NaN
582,jujuy,NaN,NaN,NaN,NaN,NaN,NaN,NaN,NaN
583,arman,59.7,150.1667,262.81,86,100,7.66,RU,1612662016
584,los banos,14.1667,121.1833,303.71,78,20,1.03,PH,1612662016
585,tomatlan,19.9333,-105.25,292.92,91,0,1.24,MX,1612662016
586,marquette,46.5333,-87.6335,255.93,66,8,6.04,US,1612662016
587,katobu,-4.9408,122.5276,302.52,72,100,2.12,ID,1612661717
588,cairns,-16.9167,145.7667,305.37,79,100,2.57,AU,1612661761
589,acarau,-2.8856,-40.12,298.76,85,33,4.89,BR,1612661717
590,bima,-8.4667,118.7167,302.81,70,19,1.79,ID,1612662017
591,oxilithos,38.5833,24.1167,285.37,58,100,0.45,GR,1612662017
592,popovo,43.35,26.2333,278.15,100,90,1.54,BG,1612662017
593,lodja,-3.4833,23.4333,295,87,100,0.75,CD,1612662017
594,praya,14.9215,-23.5087,293.15,64,75,9.26,CV,1612661747
595,skagastrond,NaN,NaN,NaN,NaN,NaN,NaN,NaN,NaN
596,kirakira,-10.4544,161.9205,299.57,86,100,3.93,SB,1612662017
597,challapata,-18.9,-66.7667,285.64,60,97,3.07,BO,1612662018
598,dalbandin,28.8947,64.4101,282.3,34,0,1.11,PK,1612662018
599,chapais,49.7834,-74.8492,262.15,79,40,5.14,CA,1612662018
600,oranjemund,-28.55,16.4333,291.42,91,86,7.29,NA,1612662009
601,lazaro cardenas,17.9583,-102.2,296.39,75,0,0.78,MX,1612662018
602,teguldet,57.3064,88.1667,272.45,98,100,3.5,RU,1612662018
603,charters towers,-20.1,146.2667,304.29,54,100,2.46,AU,1612662010
604,gornopravdinsk,60.05,69.9,274.31,91,100,4.64,RU,1612662018
605,tulum,20.2167,-87.4667,299.26,89,1,3.6,MX,1612662019
606,reporoa,-38.4333,176.35,300.37,31,99,0.45,NZ,1612662019
607,disna,55.568,28.1971,253.86,92,17,2.59,BY,1612662019
608,kazalinsk,NaN,NaN,NaN,NaN,NaN,NaN,NaN,NaN
609,orsk,51.2049,58.5668,261.15,67,75,15,RU,1612662019
610,almaznyy,48.0448,40.045,266.15,86,20,3,RU,1612662019
611,berea,41.3662,-81.8543,265.37,53,75,1.54,US,1612662017
612,bangassou,4.7413,22.8184,290.18,31,1,1.69,CF,1612662019
613,viligili,NaN,NaN,NaN,NaN,NaN,NaN,NaN,NaN
614,pyay,18.8167,95.2167,298.38,48,67,1.1,MM,1612662020
615,hurghada,27.2574,33.8129,289.68,57,0,3.85,EG,1612662020
616,shakhtinsk,49.71,72.5872,272.15,86,90,14,KZ,1612662020
617,turan,16.0678,108.2208,294.15,94,75,1.03,VN,1612661865
618,iquitos,-3.7481,-73.2472,298.15,88,0,0.52,PE,1612662020
619,korla,41.7597,86.1469,270.43,85,33,1.12,CN,1612662020
620,luancheng,37.8792,114.6517,275.15,55,0,1,CN,1612662020
621,huanan,46.2167,130.5167,253.3,90,71,2.88,CN,1612662021
622,nara,34.6851,135.8049,287.04,71,20,1.03,JP,1612662021
623,naliya,23.2667,68.8333,289.65,38,0,5.38,IN,1612662021
624,westport,41.1415,-73.3579,277.15,45,1,2.06,US,1612662021
625,qui nhon,13.7667,109.2333,296.21,82,62,3.88,VN,1612662021
626,santa barbara,34.7333,-120.0343,289.82,55,1,2.57,US,1612661781
627,kaspiyskiy,45.3929,47.3707,274.47,97,100,3.22,RU,1612662021
628,san jeronimo,-11.9472,-75.2829,284.06,74,88,1.49,PE,1612662021
629,whithorn,18.2604,-78.0378,300.15,61,20,2.06,JM,1612662022
630,edson,53.5835,-116.4356,249.15,77,1,2.06,CA,1612661893
631,inhambane,-23.865,35.3833,297.77,89,98,3.42,MZ,1612661916
632,sorvag,NaN,NaN,NaN,NaN,NaN,NaN,NaN,NaN
633,evensk,61.95,159.2333,265.73,84,100,12.74,RU,1612662022
634,nador,35.174,-2.9287,286.15,71,0,3.6,MA,1612662022
635,sinnamary,5.3833,-52.95,298.27,87,98,6.06,GF,1612662022
636,fergus falls,46.283,-96.0776,248.15,70,1,3.6,US,1612662022
637,tarauaca,-8.1614,-70.7656,296.46,95,100,0.36,BR,1612662023
638,fairhope,30.523,-87.9033,283.15,100,90,3.6,US,1612662023
639,schleswig,54.5167,9.55,271.15,69,100,9.77,DE,1612662023
640,teahupoo,-17.8333,-149.2667,303.15,62,20,5.66,PF,1612662023
641,beringovskiy,63.05,179.3167,251.22,90,61,5.41,RU,1612662023
642,maridi,4.9158,29.4742,290.64,27,15,1.84,SS,1612662024
